[{"lat":"41.690042","lng":"-93.461858","id":5319981,"name":"Brickstreet Market & Cafe","address":"114 Brick Street SE","state":"IA","city":"Bondurant","postal":"50035","priority":1},{"lat":"43.0988371","lng":"-93.8019643","id":5319982,"name":"Britt Food Center","address":"8 2nd St NW","state":"IA","city":"Britt","postal":"50423","priority":1},{"lat":"41.6632666","lng":"-92.0076551","id":5319983,"name":"Brothers Market 7 LLC","address":"103 West Walnut St","state":"IA","city":"Williamsburg","postal":"52361","priority":1},{"lat":"43.0727667","lng":"-89.3901614","id":5319984,"name":"Capital Centre Market","address":"111 N. Broom St","state":"WI","city":"Madison","postal":"53703","priority":1},{"lat":"41.312346","lng":"-96.346199","id":5319985,"name":"Dick's Valley Market","address":"111 E Gardiner St","state":"NE","city":"Valley","postal":"68064","priority":1},{"lat":"41.542224","lng":"-96.1237909","id":5319986,"name":"Family Fare","address":"238 South 8th St","state":"NE","city":"Blair","postal":"68008","priority":1},{"lat":"41.1407822","lng":"-95.9127669","id":5319987,"name":"Family Fare","address":"1510 Harlan Dr","state":"NE","city":"Bellevue","postal":"68005","priority":1},{"lat":"41.2440243","lng":"-95.8174176","id":5319988,"name":"Family Fare","address":"1801 Valley View Dr","state":"NE","city":"Council Bluffs","postal":"51503","priority":1},{"lat":"41.2262229","lng":"-95.9919334","id":5319990,"name":"Family Fare","address":"5019 Grover St","state":"NE","city":"Omaha","postal":"68106","priority":1},{"lat":"41.1898304","lng":"-95.9949908","id":5319991,"name":"Family Fare","address":"5101 Harrison","state":"NE","city":"Omaha","postal":"68157","priority":1},{"lat":"41.3271267","lng":"-95.9599273","id":5319992,"name":"Family Fare","address":"7402 North 30th St","state":"NE","city":"Omaha","postal":"68112","priority":1},{"lat":"41.2833901","lng":"-96.0545178","id":5319993,"name":"Family Fare","address":"2650 N 90th St","state":"NE","city":"Omaha","postal":"68134","priority":1},{"lat":"41.267698","lng":"-95.9819603","id":5319994,"name":"Family Fare","address":"820 North Saddle Creek Rd","state":"NE","city":"Omaha","postal":"38132","priority":1},{"lat":"41.2063406","lng":"-96.0831445","id":5319995,"name":"Family Fare","address":"5110 S 108th St","state":"NE","city":"Omaha","postal":"68137","priority":1},{"lat":"41.2470786","lng":"-96.2311239","id":5319996,"name":"Family Fare","address":"1221 S 203rd St","state":"NE","city":"Omaha","postal":"68130","priority":1},{"lat":"41.2306172","lng":"-95.9479066","id":5319997,"name":"Family Fare","address":"3026 South 24th St","state":"NE","city":"Omaha","postal":"38108","priority":1},{"lat":"41.2360082","lng":"-96.1402724","id":5319998,"name":"Family Fare","address":"14444 W Center Rd","state":"NE","city":"Omaha","postal":"68144","priority":1},{"lat":"41.1749248","lng":"-96.0450061","id":5319999,"name":"Family Fare","address":"1230 North Washington","state":"NE","city":"Papillion","postal":"68046","priority":1},{"lat":"42.4976173","lng":"-92.4447322","id":5320000,"name":"Fareway Cedar Falls","address":"4500 South Main St","state":"IA","city":"Cedar Falls","postal":"50613","priority":1},{"lat":"42.0465193","lng":"-91.7013581","id":5320001,"name":"Fareway Cedar Rapids","address":"885 Miller Rd","state":"IA","city":"Cedar Rapids","postal":"52411","priority":1},{"lat":"41.6000174","lng":"-93.5056764","id":5320002,"name":"Fareway Des Moines","address":"5500 E University Ave","state":"IA","city":"Des Moines","postal":"50327","priority":1},{"lat":"41.5451127","lng":"-93.6435526","id":5320003,"name":"Fareway Des Moines","address":"4313 Fleur Drive","state":"IA","city":"Des Moines","postal":"50321","priority":1},{"lat":"40.6297151","lng":"-91.3310631","id":5320004,"name":"Fareway Fort Madison","address":"1820 Ave H","state":"IA","city":"Fort Madison","postal":"52627","priority":1},{"lat":"43.432251","lng":"-96.7057774","id":5320005,"name":"Fareway Harrisburg","address":"300 Willow St W","state":"SD","city":"Harrisburg","postal":"57032","priority":1},{"lat":"42.0234028","lng":"-91.7024191","id":5320006,"name":"Fareway Hiawatha","address":"885 Edgewood Rd NE","state":"IA","city":"Hiawatha","postal":"52233","priority":1},{"lat":"43.4471954","lng":"-96.8273119","id":5320007,"name":"Fareway Tea","address":"720 E 1st St","state":"SD","city":"Tea","postal":"57064","priority":1},{"lat":"41.7092758","lng":"-91.6570259","id":5320008,"name":"Fareway Tiffin","address":"500 Croell Ave","state":"IA","city":"Tiffin","postal":"52340","priority":1},{"lat":"42.0262648","lng":"-96.0991184","id":5320009,"name":"Fiesta Foods","address":"1002 11th St","state":"IA","city":"Onawa","postal":"51040","priority":1},{"lat":"41.7288483","lng":"-92.4446907","id":5320011,"name":"Flag Foods","address":"122 E. Front St","state":"IA","city":"Brooklyn Park","postal":"52211","priority":1},{"lat":"43.2658815","lng":"-93.6372574","id":5320012,"name":"Forest City Foods","address":"145 East L Street","state":"IA","city":"Forest City","postal":"50436","priority":1},{"lat":"42.4694164","lng":"-91.1166411","id":5320013,"name":"Hartig Drug","address":"711 16th Ave SE","state":"IA","city":"Dyersville","postal":"52040","priority":1},{"lat":"42.4325632","lng":"-90.4468834","id":5320014,"name":"Hartig Drug","address":"11002 Bartell Blvd","state":"IL","city":"Galena","postal":"61036","priority":1},{"lat":"42.8768066","lng":"-89.9346111","id":5320015,"name":"Hollandale Grocery","address":"300 Main Street","state":"WI","city":"Hollandale","postal":"53544","priority":1},{"lat":"43.260174","lng":"-91.473383","id":5320016,"name":"Homestead Dairy","address":"850 Rossville Rd","state":"IA","city":"Waukon","postal":"52172","priority":1},{"lat":"41.4908742","lng":"-94.1231542","id":5320017,"name":"Hometown Market","address":"145 S. Chestnut Ave","state":"IA","city":"Earlham","postal":"50072","priority":1},{"lat":"41.9893789","lng":"-91.6515536","id":5320019,"name":"Hy-Vee Cedar Rapids","address":"1556 1st Ave NE","state":"IA","city":"Cedar Rapids","postal":"52402","priority":1},{"lat":"41.7225074","lng":"-91.6065976","id":5320020,"name":"Hy-Vee Coralville","address":"3285 Crosspark Rd","state":"IA","city":"Coralville","postal":"52241","priority":1},{"lat":"40.7374268","lng":"-89.6035389","id":5320021,"name":"Hy-Vee Peoria","address":"4125 Sheridan Rd   Suite 20","state":"IL","city":"Peoria","postal":"61614","priority":1},{"lat":"42.517453","lng":"-96.4054897","id":5320022,"name":"Hy-Vee Sioux City","address":"2611 Pierce Street","state":"IA","city":"Sioux City","postal":"51104","priority":1},{"lat":"41.985098","lng":"-92.5831991","id":5320023,"name":"Hy-Vee Dollar Fresh","address":"1006 S County Rd","state":"IA","city":"Toldeo","postal":"52342","priority":1},{"lat":"41.59367","lng":"-93.7881209","id":5320024,"name":"Hy-Vee West Des Moines","address":"5820 Westown Parkway","state":"IA","city":"West Des Moines","postal":"50266","priority":1},{"lat":"40.8399423","lng":"-96.7850145","id":5320025,"name":"IGA","address":"4646 W Huntington Ave #1","state":"NE","city":"Lincoln","postal":"68524","priority":1},{"lat":"42.102457","lng":"-89.832748","id":5320026,"name":"Lanark Food Center","address":"113 N. Broad St.","state":"IL","city":"Lanark","postal":"61046","priority":1},{"lat":"42.4834185","lng":"-92.4492123","id":5320027,"name":"Martin Bros. Food Market","address":"408 Viking Rd","state":"IA","city":"Cedar Falls","postal":"50613","priority":1},{"lat":"43.0670153","lng":"-87.8782972","id":5320028,"name":"Nehring's Sendik's on Downer","address":"2643 N. Downer Ave.","state":"WI","city":"Milwaukee","postal":"53211","priority":1},{"lat":"41.0459991","lng":"-95.7428591","id":5320030,"name":"No Frills","address":"423 Sharp St","state":"IA","city":"Glenwood","postal":"51534","priority":1},{"lat":"43.0881247","lng":"-89.2111229","id":5320032,"name":"Piggly Wiggly","address":"421 W Cottage Grove","state":"WI","city":"Cottage Grove","postal":"53527","priority":1},{"lat":"42.7798771","lng":"-89.2733716","id":5320033,"name":"Piggly Wiggly","address":"8 N County Rd M","state":"WI","city":"Evansville","postal":"53536","priority":1},{"lat":"43.1933002","lng":"-89.4660795","id":5320034,"name":"Piggly Wiggly","address":"205 N. Holiday Drive","state":"WI","city":"Waunakee","postal":"53597","priority":1},{"lat":"41.6140431","lng":"-93.8313413","id":5320035,"name":"Price Chopper","address":"15500 Hickman Rd","state":"IA","city":"Clive","postal":"50325","priority":1},{"lat":"42.5170343","lng":"-90.6440762","id":5320036,"name":"Q Casino","address":"1855 Greyhound Park Dr","state":"IA","city":"Dubuque","postal":"52001","priority":1},{"lat":"42.4694207","lng":"-91.1161915","id":5320037,"name":"Randy's Neighborhood Market","address":"733 16th Ave SE","state":"IA","city":"Dyersville","postal":"52040","priority":1},{"lat":"41.8256625","lng":"-90.5401847","id":5320038,"name":"Randy's Neighborhood Market","address":"622 10th St","state":"IA","city":"Dewitt","postal":"52742","priority":1},{"lat":"41.4697679","lng":"-90.4508264","id":5320039,"name":"Sam's Club Moline","address":" 6600 44th Ave","state":"IL","city":"Moline","postal":"61265","priority":1},{"lat":"40.8395581","lng":"-96.7065078","id":5320040,"name":"Schmick's","address":"2727 N 11th Street","state":"NE","city":"Lincoln","postal":"68521","priority":1},{"lat":"40.8144904","lng":"-96.7417411","id":5320041,"name":"Schmick's","address":"1340 W O Street","state":"NE","city":"Lincoln","postal":"68528","priority":1},{"lat":"41.5402399","lng":"-90.5214995","id":5320042,"name":"Schnucks Markets Bettendorf","address":"858 Middle Rd","state":"IA","city":"Bettendorf","postal":"52722","priority":1},{"lat":"40.8164407","lng":"-96.6554384","id":5320043,"name":"Target","address":"333 N 48th Street","state":"NE","city":"Lincoln","postal":"68504","priority":1},{"lat":"41.2948076","lng":"-96.1164212","id":5320044,"name":"Target","address":"4001 N 132nd Street","state":"NE","city":"Omaha","postal":"68164","priority":1},{"lat":"41.1652801","lng":"-96.0452542","id":5320045,"name":"Target","address":"718 N. Washington St","state":"NE","city":"Papillion","postal":"68046","priority":1},{"lat":"39.7497614","lng":"-89.7106993","id":5320047,"name":"Target","address":"3445 Freedom Dr","state":"IL","city":"SPRINGFIELD","postal":"62704","priority":1},{"lat":"43.1502468","lng":"-93.2531768","id":5320049,"name":"Target","address":"3450 4th Street SW","state":"IA","city":"MASON CITY","postal":"50401","priority":1},{"lat":"40.7478323","lng":"-89.6382676","id":5320051,"name":"Target","address":"5001 N. Big Hollow Rd","state":"IL","city":"Peoria","postal":"61615","priority":1},{"lat":"40.9758617","lng":"-90.387932","id":5320052,"name":"Target","address":"1071 W. Carl Sandburg Dr","state":"IL","city":"Galesburg","postal":"61401","priority":1},{"lat":"41.5618661","lng":"-93.7792272","id":5320056,"name":"Target","address":"5405 Mills Civic Parkway","state":"IA","city":"West Des Moines","postal":"50266","priority":1},{"lat":"40.7284947","lng":"-96.6665893","id":5320059,"name":"Target","address":"8201 S. 40th St","state":"NE","city":"Lincoln","postal":"68516","priority":1},{"lat":"41.289104","lng":"-96.1797468","id":5320060,"name":"Target","address":"16959 Evans Plz","state":"NE","city":"Omaha","postal":"68116","priority":1},{"lat":"41.2364433","lng":"-96.1934739","id":5320064,"name":"Target","address":"17810 W Center Rd","state":"NE","city":"Omaha","postal":"68130","priority":1},{"lat":"41.6471501","lng":"-93.7666833","id":5320065,"name":"Target","address":"11148 Plum Dr","state":"IA","city":"Urbandale","postal":"50322","priority":1},{"lat":"40.7599609","lng":"-96.640763","id":5320066,"name":"Target","address":"5330 S 56th St","state":"NE","city":"Lincoln","postal":"68516","priority":1},{"lat":"41.2599542","lng":"-96.0374852","id":5320067,"name":"Target","address":"7200 W Dodge Rd","state":"NE","city":"Omaha","postal":"68114","priority":1},{"lat":"41.3191705","lng":"-96.0277235","id":5320068,"name":"Target","address":"6636 N 73rd Plaza","state":"NE","city":"Omaha","postal":"68122","priority":1},{"lat":"42.491867","lng":"-90.7626395","id":5320069,"name":"Theisens Supply","address":"6201 Chavenelle Rd","state":"IA","city":"Dubuque","postal":"52002","priority":1},{"lat":"43.3319717","lng":"-90.8377858","id":5320070,"name":"The Marketplace","address":"180 Misty Valley Ave","state":"WI","city":"Gays Mills","postal":"54631","priority":1},{"lat":"41.5370613","lng":"-93.5945583","id":5320076,"name":"Walmart Supercenter","address":"5101 SE 14TH ST","state":"IA","city":"DES MOINES","postal":"50320","priority":1},{"lat":"41.2595232","lng":"-95.9610416","id":5320106,"name":"Wohlner's Neighborhood Grocery","address":"3253 Dodge St","state":"NE","city":"Omaha","postal":"68131","priority":1},{"lat":"42.1688127","lng":"-87.9243515","id":5320107,"name":"Woodman's Markets","address":"1550 Deerfield Parkway","state":"IL","city":"Buffalo Grove","postal":"60089","priority":1},{"lat":"42.3228019","lng":"-88.1710051","id":5320108,"name":"Woodman's Markets","address":"27555 IL Route 120","state":"IL","city":"Lakemoor","postal":"60051","priority":1},{"lat":"42.2552293","lng":"-90.4231597","id":5320109,"name":"Bender's Foods","address":"400 2nd Street","state":"IA","city":"Bellevue","postal":"52031","priority":1},{"lat":"42.98894","lng":"-90.655681","id":5320110,"name":"Bender's Foods","address":"320 Lincoln Ave.","state":"WI","city":"Fennimore","postal":"53809","priority":1},{"lat":"42.7796938","lng":"-91.0999212","id":5320111,"name":"Bender's Foods","address":"619 Hwy 52 South","state":"IA","city":"Guttenberg","postal":"52052","priority":1},{"lat":"42.9383785","lng":"-89.3847511","id":5320112,"name":"Bill's Food Center","address":"787 N Main St #1","state":"WI","city":"Oregon","postal":"53575","priority":1},{"lat":"42.3063366","lng":"-90.9926047","id":5320113,"name":"Brother's Market","address":"105 Nixon Street SE","state":"IA","city":"Cascade","postal":"52033","priority":1},{"lat":"42.8754478","lng":"-89.5339233","id":5320114,"name":"Burreson's Foods","address":"1019 River St","state":"WI","city":"Belleville","postal":"53508","priority":1},{"lat":"41.8964227","lng":"-92.2785054","id":5320116,"name":"Country Foods","address":"1206 7th Ave","state":"IA","city":"Belle Plaine","postal":"52208","priority":1},{"lat":"42.5112567","lng":"-90.665224","id":5320141,"name":"Eagle Country Market","address":"1800 Elm St","state":"IA","city":"Dubuque","postal":"52001","priority":1},{"lat":"41.6099659","lng":"-94.017954","id":5320142,"name":"Fareway Adel","address":"804 Nile Kinnick Dr","state":"IA","city":"Adel","postal":"50003","priority":1},{"lat":"43.0837921","lng":"-94.2137145","id":5320143,"name":"Fareway Algona","address":"1905 Hwy 18 E","state":"Ia","city":"Algona","postal":"50511","priority":1},{"lat":"41.6435195","lng":"-93.4721258","id":5320144,"name":"Fareway Altoona","address":"628 8th St","state":"IA","city":"Altoona","postal":"50009","priority":1},{"lat":"42.057042","lng":"-93.646641","id":5320145,"name":"Fareway Ames","address":"3619 Stange Rd","state":"IA","city":"Ames","postal":"50010","priority":1},{"lat":"42.0276359","lng":"-93.6164771","id":5320146,"name":"Fareway Ames","address":"619 Burnett Ave","state":"IA","city":"Ames","postal":"50010","priority":1},{"lat":"42.1085226","lng":"-91.2816559","id":5320147,"name":"Fareway Anamosa","address":"402 East Main St","state":"IA","city":"Anamosa","postal":"52205","priority":1},{"lat":"41.7021038","lng":"-93.59978","id":5320148,"name":"Fareway Ankeny","address":"109 SE Oralabor Rd","state":"IA","city":"Ankeny","postal":"50021","priority":1},{"lat":"41.757053","lng":"-93.5992261","id":5320149,"name":"Fareway Ankeny North","address":"3205 N Ankeny Blvd","state":"IA","city":"Ankeny","postal":"50023","priority":1},{"lat":"41.4080754","lng":"-95.0154018","id":5320150,"name":"Fareway Atlantic","address":"301 Poplar St","state":"IA","city":"Atlantic","postal":"50022","priority":1},{"lat":"41.5572576","lng":"-90.4801503","id":5320151,"name":"Fareway Bettendorf","address":"3800 Belmont Rd","state":"IA","city":"Bettendorf","postal":"52722","priority":1},{"lat":"42.0381875","lng":"-93.8676607","id":5320152,"name":"Fareway Boone","address":"1711 Hawkeye Dr","state":"IA","city":"Boone","postal":"50036","priority":1},{"lat":"40.7990437","lng":"-91.1390134","id":5320153,"name":"Fareway Burlington","address":"920 Lawrence Dr","state":"IA","city":"Burlington","postal":"52601","priority":1},{"lat":"41.4988562","lng":"-93.5002664","id":5320154,"name":"Fareway Carlisle","address":"1115 Bluestem Dr","state":"IA","city":"Carlisle","postal":"50047","priority":1},{"lat":"42.0655406","lng":"-94.8514964","id":5320155,"name":"Fareway Carroll","address":"709 Monterey Dr","state":"IA","city":"Carroll","postal":"51401","priority":1},{"lat":"42.5389338","lng":"-92.4757931","id":5320156,"name":"Fareway Cedar Falls","address":"214 N. Magnolia Drive","state":"IA","city":"Cedar Falls","postal":"50613","priority":1},{"lat":"41.9648892","lng":"-91.7271939","id":5320157,"name":"Fareway Cedar Rapids","address":"4220 16th Ave SW","state":"IA","city":"Cedar Rapids","postal":"52404","priority":1},{"lat":"42.0162793","lng":"-91.6330897","id":5320158,"name":"Fareway Cedar Rapids","address":"3717 1st Avenue SE","state":"IA","city":"Cedar Rapids","postal":"52403","priority":1},{"lat":"40.7309786","lng":"-92.866517","id":5320159,"name":"Fareway Centerville","address":"305 South 18th St","state":"IA","city":"Centerville","postal":"52544","priority":1},{"lat":"43.0524305","lng":"-92.675016","id":5320160,"name":"Fareway Charles City","address":"210 11th St","state":"IA","city":"Charles City","postal":"50616","priority":1},{"lat":"42.7540576","lng":"-95.5519662","id":5320161,"name":"Fareway Cherokee","address":"205 West Bluff St","state":"IA","city":"Cherokee","postal":"51012","priority":1},{"lat":"40.7242123","lng":"-95.0395286","id":5320162,"name":"Fareway Clarinda","address":"115 Essie Davison Dr","state":"IA","city":"Clarinda","postal":"51632","priority":1},{"lat":"43.1440838","lng":"-93.3767836","id":5320163,"name":"Fareway Clear Lake","address":"910 Highway West 18","state":"IA","city":"Clear Lake","postal":"50428","priority":1},{"lat":"41.8609673","lng":"-90.2125965","id":5320164,"name":"Fareway Clinton","address":"1350 11th St. NW","state":"IA","city":"Clinton","postal":"52733","priority":1},{"lat":"41.6031849","lng":"-93.7567615","id":5320165,"name":"Fareway Clive","address":"10151 University Ave","state":"IA","city":"Clive","postal":"50325","priority":1},{"lat":"41.2799944","lng":"-95.8194526","id":5320166,"name":"Fareway Council Bluffs","address":"310 McKenzie Ave","state":"IA","city":"Council Bluffs","postal":"51503","priority":1},{"lat":"43.3720291","lng":"-92.1175345","id":5320167,"name":"Fareway Cresco","address":"112 South Elm St","state":"IA","city":"Cresco","postal":"52136","priority":1},{"lat":"41.0582483","lng":"-94.3606078","id":5320168,"name":"Fareway Creston","address":"105 East Adams St","state":"IA","city":"Creston","postal":"50801","priority":1},{"lat":"41.5738124","lng":"-90.5985864","id":5320169,"name":"Fareway Davenport","address":"1635 W 53rd St","state":"IA","city":"Davenport","postal":"52806","priority":1},{"lat":"43.3028241","lng":"-91.7856089","id":5320170,"name":"Fareway Decorah","address":"103 E. Main","state":"IA","city":"Decorah","postal":"52101","priority":1},{"lat":"42.0249048","lng":"-95.3729358","id":5320171,"name":"Fareway Denison","address":"609 Arrowhead Dr","state":"IA","city":"Denison","postal":"51442","priority":1},{"lat":"41.6275272","lng":"-93.619322","id":5320172,"name":"Fareway Des Moines","address":"100 Euclid Ave","state":"IA","city":"Des Moines","postal":"50313","priority":1},{"lat":"41.5565045","lng":"-93.5785011","id":5320173,"name":"Fareway Des Moines","address":"3000 SE 22nd St","state":"IA","city":"Des Moines","postal":"50320","priority":1},{"lat":"42.5074816","lng":"-90.7192817","id":5320174,"name":"Fareway Dubuque","address":"2050 John F Kennedy Rd","state":"IA","city":"Dubuque","postal":"52001","priority":1},{"lat":"42.4755575","lng":"-91.1102574","id":5320175,"name":"Fareway Dyersville","address":"1207 12th St SE","state":"IA","city":"Dyersville","postal":"52040","priority":1},{"lat":"42.6656465","lng":"-93.9034829","id":5320176,"name":"Fareway Eagle Grove","address":"205 NW 1st St","state":"IA","city":"Eagle Grove","postal":"50533","priority":1},{"lat":"42.3610164","lng":"-93.1012264","id":5320177,"name":"Fareway Eldora","address":"1232 14th St","state":"IA","city":"Eldora","postal":"50627","priority":1},{"lat":"43.1089726","lng":"-94.6770775","id":5320178,"name":"Fareway Emmetsburg","address":"2008 12th St","state":"IA","city":"Emmetsburg","postal":"50536","priority":1},{"lat":"43.4014773","lng":"-94.8300928","id":5320179,"name":"Fareway Estherville","address":"1108 Central Ave","state":"IA","city":"Estherville","postal":"51334","priority":1},{"lat":"42.4758825","lng":"-92.2865099","id":5320180,"name":"Fareway Evansdale","address":"215 South Evans Rd","state":"IA","city":"Evansdale","postal":"50707","priority":1},{"lat":"43.6490197","lng":"-94.4482793","id":5320181,"name":"Fareway Fairmont","address":"500 South State St","state":"MN","city":"Fairmont","postal":"56031","priority":1},{"lat":"44.2954678","lng":"-93.2724299","id":5320182,"name":"Fareway Faribault","address":"430 2nd Ave NW","state":"MN","city":"Faribault","postal":"55021","priority":1},{"lat":"42.5044493","lng":"-94.1812959","id":5320183,"name":"Fareway Fort Dodge","address":"1231 1st Ave S","state":"IA","city":"Fort Dodge","postal":"50501","priority":1},{"lat":"41.4399867","lng":"-90.146248","id":5320184,"name":"Fareway Geneseo","address":"540 Pritchard Dr","state":"IL","city":"Geneseo","postal":"61254","priority":1},{"lat":"41.302579","lng":"-94.4639644","id":5320185,"name":"Fareway Greenfield","address":"212 SW Kent","state":"IA","city":"Greenfield","postal":"50849","priority":1},{"lat":"41.6866518","lng":"-93.7788302","id":5320186,"name":"Fareway Grimes","address":"351 SE Gateway Dr","state":"IA","city":"Grimes","postal":"50111","priority":1},{"lat":"41.7413431","lng":"-92.7284521","id":5320187,"name":"Fareway Grinnell","address":"727 West St","state":"IA","city":"Grinnell","postal":"50112","priority":1},{"lat":"42.7424334","lng":"-93.2118798","id":5320188,"name":"Fareway Hampton","address":"309 Central Ave West","state":"IA","city":"Hampton","postal":"50441","priority":1},{"lat":"41.6499191","lng":"-95.3384382","id":5320189,"name":"Fareway Harlan","address":"1910 23rd St","state":"IA","city":"Harlan","postal":"51537","priority":1},{"lat":"42.0465227","lng":"-91.7022702","id":5320190,"name":"Fareway Hiawatha","address":"886 Miller Rd","state":"IA","city":"Hiawatha","postal":"52411","priority":1},{"lat":"42.7213089","lng":"-94.2186791","id":5320191,"name":"Fareway Humboldt","address":"710 First Avenue North","state":"IA","city":"Humboldt","postal":"50548","priority":1},{"lat":"41.8919741","lng":"-93.6005245","id":5320192,"name":"Fareway Huxley","address":"91 Highway 69","state":"IA","city":"Huxley","postal":"50124","priority":1},{"lat":"42.455877","lng":"-91.8887098","id":5320193,"name":"Fareway Independence","address":"1400 3rd Ave SE","state":"IA","city":"Independence","postal":"50644","priority":1},{"lat":"41.6514361","lng":"-91.5761967","id":5320195,"name":"Fareway Iowa City","address":"2530 Westwinds Dr","state":"IA","city":"Iowa City","postal":"52246","priority":1},{"lat":"41.629628","lng":"-91.4817703","id":5320196,"name":"Fareway Iowa City","address":"2765 Commerce Drive","state":"IA","city":"Iowa City","postal":"52240","priority":1},{"lat":"42.522669","lng":"-93.2637107","id":5320197,"name":"Fareway Iowa Falls","address":"500 Iowa Street","state":"IA","city":"Iowa Falls","postal":"50126","priority":1},{"lat":"42.0268684","lng":"-94.3766688","id":5320198,"name":"Fareway Jefferson","address":"1207 N Elm St","state":"IA","city":"Jefferson","postal":"50129","priority":1},{"lat":"41.6697325","lng":"-93.6963202","id":5320199,"name":"Fareway Johnston","address":"6005 Merle Hay Rd","state":"IA","city":"Johnston","postal":"50131","priority":1},{"lat":"41.3081786","lng":"-93.1104695","id":5320200,"name":"Fareway Knoxville","address":"1308 S Lincoln St","state":"IA","city":"Knoxville","postal":"50138","priority":1},{"lat":"42.7936996","lng":"-96.16429","id":5320201,"name":"Fareway Lemars","address":"115 Plymouth Street NE","state":"IA","city":"Lemars","postal":"51031","priority":1},{"lat":"42.481561","lng":"-91.4571387","id":5320202,"name":"Fareway Manchester","address":"109 E. Marion","state":"IA","city":"Manchester","postal":"52057","priority":1},{"lat":"42.0671939","lng":"-90.6813721","id":5320203,"name":"Fareway Maquoketa","address":"110 West Gate Drive","state":"IA","city":"Maquoketa","postal":"52060","priority":1},{"lat":"42.0368517","lng":"-91.5764997","id":5320204,"name":"Fareway Marion","address":"3300 10th Ave","state":"IA","city":"Marion","postal":"52302","priority":1},{"lat":"42.0374277","lng":"-92.9146306","id":5320205,"name":"Fareway Marshalltown","address":"102 W Anson St","state":"IA","city":"Marshalltown","postal":"50158","priority":1},{"lat":"43.156187","lng":"-93.2006426","id":5320206,"name":"Fareway Mason City","address":"400 N Delaware","state":"IA","city":"Mason City","postal":"50401","priority":1},{"lat":"41.475103","lng":"-90.5026755","id":5320207,"name":"Fareway Moline","address":"3705 25th St","state":"IL","city":"Moline","postal":"61265","priority":1},{"lat":"42.2419002","lng":"-91.1919853","id":5320208,"name":"Fareway Monticello","address":"420 N. Farley St","state":"IA","city":"Monticello","postal":"52310","priority":1},{"lat":"41.4356271","lng":"-91.082788","id":5320209,"name":"Fareway Muscatine","address":"2100 Cedar Plaza Dr","state":"IA","city":"Muscatine","postal":"52761","priority":1},{"lat":"40.6608529","lng":"-95.8608562","id":5320210,"name":"Fareway Nebraska City","address":"1738 S 11th St","state":"NE","city":"Nebraska City","postal":"68410","priority":1},{"lat":"42.0105693","lng":"-93.4395808","id":5320211,"name":"Fareway Nevada","address":"1505 South B Avenue","state":"IA","city":"Nevada","postal":"50201","priority":1},{"lat":"43.0578891","lng":"-92.312072","id":5320212,"name":"Fareway New Hampton","address":"102 S. Water Ave","state":"IA","city":"New Hampton","postal":"50659","priority":1},{"lat":"41.701958","lng":"-93.0526902","id":5320213,"name":"Fareway Newton","address":"120 N 3rd Ave E","state":"IA","city":"Newton","postal":"50208","priority":1},{"lat":"41.74033","lng":"-91.608628","id":5320214,"name":"Fareway North Liberty","address":"615 Westwood Dr","state":"IA","city":"North Liberty","postal":"52317","priority":1},{"lat":"41.4839971","lng":"-93.676823","id":5320215,"name":"Fareway Norwalk","address":"1711 Sunset Dr","state":"IA","city":"Norwalk","postal":"50211","priority":1},{"lat":"42.6749981","lng":"-91.9109161","id":5320216,"name":"Fareway Oelwein","address":"102 2nd St SE","state":"IA","city":"Oelwein","postal":"50662","priority":1},{"lat":"41.1902233","lng":"-96.1814381","id":5320217,"name":"Fareway Omaha","address":"17070 Audrey St","state":"NE","city":"Omaha","postal":"68136","priority":1},{"lat":"42.9969766","lng":"-96.052365","id":5320218,"name":"Fareway Orange City","address":"512 8th S.E.","state":"IA","city":"Orange City","postal":"51041","priority":1},{"lat":"41.032345","lng":"-93.7646988","id":5320219,"name":"Fareway Osceola","address":"215 South Main Street","state":"IA","city":"Osceola","postal":"50213","priority":1},{"lat":"41.2929926","lng":"-92.6482433","id":5320220,"name":"Fareway Oskaloosa","address":"311 3rd Ave West","state":"IA","city":"Oskaloosa","postal":"52577","priority":1},{"lat":"41.0103554","lng":"-92.4401753","id":5320221,"name":"Fareway Ottumwa","address":"1325 Albia Rd","state":"IA","city":"Ottumwa","postal":"52501","priority":1},{"lat":"44.0763171","lng":"-93.2273341","id":5320222,"name":"Fareway Owatonna","address":"831 Oak Avenue South","state":"MN","city":"Owatonna","postal":"55060","priority":1},{"lat":"41.1754156","lng":"-96.0267168","id":5320223,"name":"Fareway Papillion","address":"1325 Jersey St","state":"NE","city":"Papillion","postal":"68046","priority":1},{"lat":"41.4133064","lng":"-92.9417892","id":5320224,"name":"Fareway Pella","address":"2010 Washington St","state":"IA","city":"Pella","postal":"50219","priority":1},{"lat":"42.4442553","lng":"-90.8485522","id":5320225,"name":"Fareway Peosta","address":"8400 NICC Dr","state":"IA","city":"Peosta","postal":"52068","priority":1},{"lat":"41.8376559","lng":"-94.1028537","id":5320226,"name":"Fareway Perry","address":"1315 Willis Avenue","state":"IA","city":"Perry","postal":"50220","priority":1},{"lat":"41.6000174","lng":"-93.5056764","id":5320227,"name":"Fareway Pleasant Hill","address":"5500 East University Ave","state":"IA","city":"Pleasant Hill","postal":"50327","priority":1},{"lat":"41.7638138","lng":"-93.7185515","id":5320228,"name":"Fareway Polk City","address":"1101 South 5th St","state":"IA","city":"Polk City","postal":"50226","priority":1},{"lat":"41.0125128","lng":"-95.2340904","id":5320229,"name":"Fareway Red Oak","address":"811 Broadway","state":"IA","city":"Red Oak","postal":"51566","priority":1},{"lat":"42.4001546","lng":"-96.3526883","id":5320230,"name":"Fareway Sgt. Bluff","address":"700 1st Street","state":"IA","city":"Sgt. Bluff","postal":"51054","priority":1},{"lat":"43.1868778","lng":"-95.8203032","id":5320231,"name":"Fareway Sheldon","address":"2603 Park St","state":"IA","city":"Sheldon","postal":"51201","priority":1},{"lat":"40.7556512","lng":"-95.3851438","id":5320232,"name":"Fareway Shenandoah","address":"1007 S Fremont St","state":"IA","city":"Shenandoah","postal":"51601","priority":1},{"lat":"43.07786","lng":"-96.177807","id":5320233,"name":"Fareway Sioux Center","address":"115 1st Ave NW","state":"IA","city":"Sioux Center","postal":"51250","priority":1},{"lat":"42.5388507","lng":"-96.3722238","id":5320234,"name":"Fareway Sioux City","address":"4016 Indian Hills Dr","state":"IA","city":"Sioux City","postal":"51108","priority":1},{"lat":"42.4505643","lng":"-96.3540182","id":5320236,"name":"Fareway Sioux City","address":"4267 Sergeant Rd","state":"IA","city":"Sioux City","postal":"51106","priority":1},{"lat":"43.514222","lng":"-96.6726663","id":5320237,"name":"Fareway Sioux Falls","address":"3301 S Sycamore Ave","state":"SD","city":"Sioux Falls","postal":"57103","priority":1},{"lat":"43.1455087","lng":"-95.1427996","id":5320238,"name":"Fareway Spencer","address":"104 East Eighth St","state":"IA","city":"Spencer","postal":"51301","priority":1},{"lat":"43.4212184","lng":"-95.1068941","id":5320239,"name":"Fareway Spirit Lake","address":"1906 Keokuk","state":"IA","city":"Spirit Lake","postal":"51360","priority":1},{"lat":"43.8715868","lng":"-92.4843733","id":5320240,"name":"Fareway Stewartville","address":"2012 2nd Ave NE","state":"MN","city":"Stewartville","postal":"55976","priority":1},{"lat":"42.6463646","lng":"-95.1958446","id":5320241,"name":"Fareway Storm Lake","address":"731 Seneca St","state":"IA","city":"Storm Lake","postal":"50588","priority":1},{"lat":"41.9841563","lng":"-92.5803327","id":5320242,"name":"Fareway Toledo","address":"1005 S County Rd","state":"IA","city":"Toledo","postal":"52342","priority":1},{"lat":"41.6428378","lng":"-93.7342264","id":5320243,"name":"Fareway Urbandale","address":"8450 Meredith Dr","state":"IA","city":"Urbandale","postal":"50322","priority":1},{"lat":"42.1659012","lng":"-92.0264772","id":5320244,"name":"Fareway Vinton","address":"501 A Ave.","state":"IA","city":"Vinton","postal":"52349","priority":1},{"lat":"41.3021556","lng":"-91.6938382","id":5320245,"name":"Fareway Washington","address":"301 North Marion Ave","state":"IA","city":"Washington","postal":"52353","priority":1},{"lat":"42.4588341","lng":"-92.3581495","id":5320246,"name":"Fareway Waterloo","address":"40 W. San Marnan Dr","state":"IA","city":"Waterloo","postal":"50701","priority":1},{"lat":"43.2578943","lng":"-91.4840377","id":5320247,"name":"Fareway Waukon","address":"777 11th Ave SW","state":"IA","city":"Waukon","postal":"52172","priority":1},{"lat":"42.72665","lng":"-92.474091","id":5320248,"name":"Fareway Waverly","address":"222 West Bremer Ave","state":"IA","city":"Waverly","postal":"50677","priority":1},{"lat":"42.4692308","lng":"-93.8274468","id":5320249,"name":"Fareway Webster City","address":"942 2nd Street","state":"IA","city":"Webster City","postal":"50595","priority":1},{"lat":"41.5836892","lng":"-93.7068322","id":5320250,"name":"Fareway West Des Moines","address":"329 Grand Ave","state":"IA","city":"West Des Moines","postal":"50265","priority":1},{"lat":"41.3458884","lng":"-94.0225347","id":5320251,"name":"Fareway Winterset","address":"719 W Highway 92","state":"IA","city":"Winterset","postal":"50273","priority":1},{"lat":"43.6340318","lng":"-95.6018583","id":5320252,"name":"Fareway Worthington","address":"1028 Ryan's Rd","state":"MN","city":"Worthington","postal":"56187","priority":1},{"lat":"41.9171387","lng":"-91.4231614","id":5320253,"name":"Gary's Foods","address":"715 1st Ave SW","state":"IA","city":"Mt Vernon","postal":"52314","priority":1},{"lat":"42.403603","lng":"-90.3361233","id":5320254,"name":"General Store","address":"425 Eagle Ridge Dr.","state":"IL","city":"Galena","postal":"61036","priority":1},{"lat":"42.497883","lng":"-90.6874792","id":5320255,"name":"Hartig Drug","address":"1600 University","state":"IA","city":"Dubuque","postal":"52001","priority":1},{"lat":"42.5138252","lng":"-90.6717456","id":5320256,"name":"Hartig Drug","address":"2225 Central Ave.","state":"IA","city":"Dubuque","postal":"52001","priority":1},{"lat":"42.5111465","lng":"-90.7216562","id":5320257,"name":"Hartig Drug","address":"2255 JFK Rd.","state":"IA","city":"Dubuque","postal":"52001","priority":1},{"lat":"43.1758288","lng":"-90.0662882","id":5320258,"name":"Hometown Supermarket of Spring Green","address":"171 S Worchester St","state":"WI","city":"Spring Green","postal":"53588","priority":1},{"lat":"41.6432682","lng":"-93.4661067","id":5320259,"name":"Hy-Vee Altoona","address":"108 8th St SW","state":"IA","city":"Altoona","postal":"50009","priority":1},{"lat":"42.0216985","lng":"-93.669771","id":5320260,"name":"Hy-Vee Ames #1","address":"3800 Lincoln Way","state":"IA","city":"Ames","postal":"50014","priority":1},{"lat":"42.0198837","lng":"-93.6197223","id":5320261,"name":"Hy-Vee Ames #2","address":"640 Lincoln Way","state":"IA","city":"Ames","postal":"50010","priority":1},{"lat":"41.7345038","lng":"-93.6024701","id":5320262,"name":"Hy-Vee Ankeny","address":"410 N. Ankeny Blvd.","state":"IA","city":"Ankeny","postal":"50023","priority":1},{"lat":"41.7043084","lng":"-93.62368","id":5320263,"name":"Hy-Vee Ankeny #2","address":"2510 SW State St","state":"IA","city":"Ankeny","postal":"50023","priority":1},{"lat":"43.6845108","lng":"-92.985525","id":5320265,"name":"Hy-Vee Austin","address":"1001 18th Ave NW","state":"MN","city":"Austin","postal":"55912","priority":1},{"lat":"41.5536691","lng":"-90.4847456","id":5320266,"name":"Hy-Vee Bettendorf","address":"2900 Devil's Glen Rd.","state":"IA","city":"Bettendorf","postal":"52722","priority":1},{"lat":"42.0647497","lng":"-93.8761096","id":5320267,"name":"Hy-Vee Boone","address":"1111 8th St","state":"IA","city":"Boone","postal":"50036","priority":1},{"lat":"42.5110791","lng":"-92.4350782","id":5320268,"name":"Hy-Vee Cedar Falls","address":"6301 University Ave","state":"IA","city":"Cedar Falls","postal":"50613","priority":1},{"lat":"41.973912","lng":"-91.6983956","id":5320269,"name":"Hy-Vee Cedar Rapids","address":"1843 Johnson Ave NW","state":"IA","city":"Cedar Rapids","postal":"52405","priority":1},{"lat":"41.9751846","lng":"-91.6097651","id":5320271,"name":"Hy-Vee Cedar Rapids","address":"4035 Mt Vernon Rd SE","state":"IA","city":"Cedar Rapids","postal":"52402","priority":1},{"lat":"42.0293183","lng":"-91.6983628","id":5320272,"name":"Hy-Vee Cedar Rapids","address":"5050 Edgewood Rd NE","state":"IA","city":"Cedar Rapids","postal":"52411","priority":1},{"lat":"41.9571461","lng":"-91.6586108","id":5320273,"name":"Hy-Vee Cedar Rapids","address":"20 Wilson Ave SW","state":"IA","city":"Cedar Rapids","postal":"52404","priority":1},{"lat":"42.011315","lng":"-91.6598251","id":5320274,"name":"Hy-Vee Cedar Rapids","address":"3235 Oakland Rd.","state":"IA","city":"Cedar Rapids","postal":"52402","priority":1},{"lat":"43.0671389","lng":"-92.6748608","id":5320276,"name":"Hy-Vee Charles City","address":"901 Kelly St","state":"IA","city":"Charles City","postal":"50616","priority":1},{"lat":"41.836475","lng":"-90.1915037","id":5320277,"name":"Hy-Vee Clinton","address":"901 S 4th St","state":"IA","city":"Clinton","postal":"52732","priority":1},{"lat":"41.6822681","lng":"-91.5933944","id":5320278,"name":"Hy-Vee Coralville","address":"1914 8th St","state":"IA","city":"Coralville","postal":"52241","priority":1},{"lat":"41.2445314","lng":"-95.8256592","id":5320279,"name":"Hy-Vee Council Bluffs","address":"1745 Madison Ave","state":"IA","city":"Council Bluffs","postal":"51503","priority":1},{"lat":"41.2611935","lng":"-95.8790906","id":5320280,"name":"Hy-Vee Council Bluffs #1","address":"2323 W Broadway","state":"IA","city":"Council Bluffs","postal":"51501","priority":1},{"lat":"41.5613522","lng":"-90.6090189","id":5320282,"name":"Hy-Vee Davenport","address":"2200 West Kimberly Rd","state":"IA","city":"Davenport","postal":"52806","priority":1},{"lat":"41.5100815","lng":"-90.6199724","id":5320283,"name":"Hy-Vee Davenport","address":"3019 Rockingham Rd","state":"IA","city":"Davenport","postal":"52802","priority":1},{"lat":"41.5547876","lng":"-90.5486809","id":5320284,"name":"Hy-Vee Davenport #3","address":"1823 E Kimberly Rd","state":"IA","city":"Davenport","postal":"52807","priority":1},{"lat":"41.5774194","lng":"-90.5138212","id":5320285,"name":"Hy-Vee Davenport #4","address":"4064 E 53rd St","state":"IA","city":"Davenport","postal":"52807","priority":1},{"lat":"41.5365336","lng":"-90.6122967","id":5320286,"name":"Hy-Vee Davenport #5","address":"2351 W Locust","state":"IA","city":"Davenport","postal":"52804","priority":1},{"lat":"41.5252932","lng":"-93.6018371","id":5320287,"name":"Hy-Vee Des Moines #5","address":"1107 East Army Post Rd","state":"IA","city":"Des Moines","postal":"50315","priority":1},{"lat":"41.6255208","lng":"-93.6528978","id":5320288,"name":"Hy-Vee Des Moines #1","address":"3330 ML King Jr Parkway","state":"IA","city":"Des Moines","postal":"50310","priority":1},{"lat":"41.6285214","lng":"-93.5695651","id":5320289,"name":"Hy-Vee Des Moines #2","address":"2540 E Euclid Ave","state":"IA","city":"Des Moines","postal":"50317","priority":1},{"lat":"41.5546749","lng":"-93.5947165","id":5320290,"name":"Hy-Vee Des Moines #3","address":"3221 SE 14th St","state":"IA","city":"Des Moines","postal":"50320","priority":1},{"lat":"41.5420898","lng":"-93.6429982","id":5320291,"name":"Hy-Vee Des Moines #4","address":"4605 Fleur Dr","state":"IA","city":"Des Moines","postal":"50321","priority":1},{"lat":"41.5845953","lng":"-93.622176","id":5320292,"name":"Hy-Vee D.M. #6","address":"420 Court Ave.","state":"IA","city":"Des Moines","postal":"50309","priority":1},{"lat":"42.4904434","lng":"-90.7218046","id":5320293,"name":"Hy-Vee Dubuque #1","address":"3500 Dodge St","state":"IA","city":"Dubuque","postal":"52003","priority":1},{"lat":"42.518053","lng":"-90.7445186","id":5320294,"name":"Hy-Vee Dubuque #2","address":"2395 NW Arterial","state":"IA","city":"Dubuque","postal":"52002","priority":1},{"lat":"42.4866564","lng":"-90.6629268","id":5320295,"name":"Hy-Vee Dubuque #3","address":"400 S. Locust","state":"IA","city":"Dubuque","postal":"52001","priority":1},{"lat":"43.0133009","lng":"-89.4796819","id":5320296,"name":"Hy-Vee Fitchburg","address":"2920 Fitchrona Rd","state":"WI","city":"Fitchburg","postal":"53719","priority":1},{"lat":"41.4529583","lng":"-96.4871489","id":5320297,"name":"Hy-Vee Fremont","address":"840 E 23rd St","state":"NE","city":"Fremont","postal":"68025","priority":1},{"lat":"40.9717865","lng":"-90.3802795","id":5320298,"name":"Hy-Vee Galesburg #1","address":"1975 National Blvd","state":"IL","city":"Galesburg","postal":"61401","priority":1},{"lat":"40.9457253","lng":"-90.3396877","id":5320299,"name":"Hy-Vee Galesburg #2","address":"2030 E Main St","state":"IL","city":"Galesburg","postal":"61401","priority":1},{"lat":"41.3687865","lng":"-93.5564408","id":5320300,"name":"Hy-Vee Indianola","address":"910 N Jefferson Way","state":"IA","city":"Indianola","postal":"50125","priority":1},{"lat":"41.6424818","lng":"-91.5296385","id":5320301,"name":"Hy-Vee Iowa City","address":"1720 Waterfront Dr","state":"IA","city":"Iowa City","postal":"52240","priority":1},{"lat":"41.6514259","lng":"-91.5010473","id":5320302,"name":"Hy-Vee Iowa City","address":"812 South First Ave.","state":"IA","city":"Iowa City","postal":"52245","priority":1},{"lat":"41.6776909","lng":"-91.5175604","id":5320303,"name":"Hy-Vee Iowa City #3","address":"1201 N. Dodge St","state":"IA","city":"Iowa City","postal":"52245","priority":1},{"lat":"41.6660632","lng":"-91.5013497","id":5320304,"name":"Hy-Vee Iowa City Drug Store","address":"310 N 1st Ave","state":"IA","city":"Iowa City","postal":"52245","priority":1},{"lat":"41.6650391","lng":"-93.6995704","id":5320305,"name":"Hy-Vee Johnston","address":"5750 Merle Hay Rd.","state":"IA","city":"Johnston","postal":"50131","priority":1},{"lat":"40.8147028","lng":"-96.6506163","id":5320307,"name":"Hy-Vee Lincoln #1","address":"5010 O St","state":"NE","city":"Lincoln","postal":"68510","priority":1},{"lat":"40.829304","lng":"-96.6073734","id":5320308,"name":"Hy-Vee Lincoln #2","address":"1601 North 84th Street","state":"NE","city":"Lincoln","postal":"68505","priority":1},{"lat":"40.8612768","lng":"-96.678013","id":5320309,"name":"Hy-Vee Lincoln #3","address":"5020 N 27th St","state":"NE","city":"Lincoln","postal":"68521","priority":1},{"lat":"40.7523111","lng":"-96.6666156","id":5320310,"name":"Hy-Vee Lincoln #4","address":"6001 Village Dr","state":"NE","city":"Lincoln","postal":"68516","priority":1},{"lat":"40.7680552","lng":"-96.6265384","id":5320311,"name":"Hy-Vee Lincoln #5","address":"7151 Stacy Lane","state":"NE","city":"Lincoln","postal":"68516","priority":1},{"lat":"43.1177159","lng":"-89.3183571","id":5320312,"name":"Hy-Vee Madison","address":"3801 East Washington Ave","state":"WI","city":"Madison","postal":"53704","priority":1},{"lat":"43.0509044","lng":"-89.4714115","id":5320313,"name":"Hy-Vee Madison #2 (Westgate Mall)","address":"675 S Whitney Way","state":"WI","city":"Madison","postal":"53711","priority":1},{"lat":"39.1850971","lng":"-96.5606573","id":5320314,"name":"Hy-Vee Manhattan","address":"601 Third Place","state":"KS","city":"Manhattan","postal":"66502","priority":1},{"lat":"42.0371932","lng":"-91.5723114","id":5320315,"name":"Hy-Vee Marion","address":"3600 Business Hwy 151","state":"IA","city":"Marion","postal":"52302","priority":1},{"lat":"42.0390761","lng":"-92.9105738","id":5320316,"name":"Hy-Vee Marshalltown","address":"802 S. Center St.","state":"IA","city":"Marshalltown","postal":"50158","priority":1},{"lat":"41.4440658","lng":"-90.570262","id":5320317,"name":"Hy-Vee Milan","address":"201 10th Ave W","state":"IL","city":"Milan","postal":"61264","priority":1},{"lat":"41.4876399","lng":"-90.4763368","id":5320319,"name":"Hy-Vee Moline #1","address":"4218 Avenue of the Cities","state":"IL","city":"Moline","postal":"61025","priority":1},{"lat":"41.4505192","lng":"-91.0363226","id":5320320,"name":"Hy-Vee Muscatine","address":"2400 2nd Ave","state":"IA","city":"Muscatine","postal":"52761","priority":1},{"lat":"41.2422616","lng":"-95.9941232","id":5320322,"name":"Hy-Vee Omaha #1","address":"5150 Center St","state":"NE","city":"Omaha","postal":"68106","priority":1},{"lat":"41.1974526","lng":"-96.1410757","id":5320323,"name":"Hy-Vee Omaha #2","address":"14591 Stony Brook Blvd","state":"NE","city":"Omaha","postal":"68137","priority":1},{"lat":"41.2897571","lng":"-96.1613155","id":5320324,"name":"Hy-Vee Omaha #10","address":"3410 N 156th St","state":"NE","city":"Omaha","postal":"68116","priority":1},{"lat":"41.25031","lng":"-96.1942733","id":5320325,"name":"Hy-Vee Omaha #11","address":"1000 S 178th St","state":"NE","city":"Omaha","postal":"68130","priority":1},{"lat":"41.2331583","lng":"-96.0516381","id":5320326,"name":"Hy-Vee Omaha #3","address":"8809 W Center Rd","state":"NE","city":"Omaha","postal":"68124","priority":1},{"lat":"41.3081757","lng":"-96.0827449","id":5320327,"name":"Hy-Vee Omaha #4","address":"10808 Fort St","state":"NE","city":"Omaha","postal":"68164","priority":1},{"lat":"41.2652832","lng":"-96.0391344","id":5320328,"name":"Hy-Vee Omaha #5","address":"7910 Cass St","state":"NE","city":"Omaha","postal":"68114","priority":1},{"lat":"41.2034764","lng":"-96.0634104","id":5320329,"name":"Hy-Vee Omaha #6","address":"9707 Q St","state":"NE","city":"Omaha","postal":"68127","priority":1},{"lat":"41.2662747","lng":"-96.1180773","id":5320330,"name":"Hy-Vee Omaha #8","address":"747 N 132nd St","state":"NE","city":"Omaha","postal":"68154","priority":1},{"lat":"41.2070186","lng":"-96.1930773","id":5320331,"name":"Hy-Vee Omaha #9","address":"17810 Welch Plaza","state":"NE","city":"Omaha","postal":"68135","priority":1},{"lat":"41.2949143","lng":"-92.6485511","id":5320333,"name":"Hy-Vee Oskaloosa","address":"110 S D St","state":"IA","city":"Oskaloosa","postal":"52577","priority":1},{"lat":"41.0152482","lng":"-92.4397119","id":5320334,"name":"Hy-Vee Ottumwa #1","address":"1025 N Quincy Ave","state":"IA","city":"Ottumwa","postal":"52501","priority":1},{"lat":"41.1356954","lng":"-96.026872","id":5320336,"name":"Hy-Vee Papillion","address":"11650 S 73rd St","state":"NE","city":"Papillion","postal":"68046","priority":1},{"lat":"41.4919557","lng":"-90.5593222","id":5320338,"name":"Hy-Vee Rock Island","address":"2930 18th Ave","state":"IL","city":"Rock Island","postal":"61201","priority":1},{"lat":"41.4902222","lng":"-90.4226952","id":5320339,"name":"Hy-Vee Silvis","address":"2001 5th St","state":"IL","city":"Silvis","postal":"61282","priority":1},{"lat":"42.5202542","lng":"-96.4195498","id":5320340,"name":"Hy-Vee Sioux City #1","address":"2827 Hamilton Blvd","state":"IA","city":"Sioux City","postal":"51104","priority":1},{"lat":"42.4457585","lng":"-96.3476958","id":5320341,"name":"Hy-Vee Sioux City #2","address":"4500 Sergeant Rd","state":"IA","city":"Sioux City","postal":"51106","priority":1},{"lat":"42.4889802","lng":"-96.3627462","id":5320342,"name":"Hy-Vee Sioux City #3","address":"3301 Gordon Dr","state":"IA","city":"Sioux City","postal":"51105","priority":1},{"lat":"42.4656324","lng":"-96.4292024","id":5320343,"name":"Hy-Vee South Sioux City","address":"2501 Cornhusker Dr","state":"NE","city":"South Sioux City","postal":"68776","priority":1},{"lat":"41.630379","lng":"-93.737493","id":5320344,"name":"Hy-Vee Urbandale","address":"8601 Douglas Ave.","state":"IA","city":"Urbandale","postal":"50322","priority":1},{"lat":"42.5069945","lng":"-92.4034275","id":5320345,"name":"Hy-Vee Waterloo","address":"4000 University Ave","state":"IA","city":"Waterloo","postal":"50701","priority":1},{"lat":"42.4582642","lng":"-92.3275549","id":5320346,"name":"Hy-Vee Waterloo","address":"1422 Flammang Dr.","state":"IA","city":"Waterloo","postal":"50702","priority":1},{"lat":"42.471588","lng":"-92.3772742","id":5320347,"name":"Hy-Vee Waterloo","address":"2834 Ansborough Ave","state":"IA","city":"Waterloo","postal":"50701","priority":1},{"lat":"42.5305198","lng":"-92.337982","id":5320348,"name":"Hy-Vee Waterloo","address":"2181 Logan Ave","state":"IA","city":"Waterloo","postal":"50703","priority":1},{"lat":"41.6173274","lng":"-93.8542374","id":5320349,"name":"Hy-Vee Waukee","address":"1005 E Hickman Rd","state":"IA","city":"Waukee","postal":"50263","priority":1},{"lat":"42.7121175","lng":"-92.4746337","id":5320350,"name":"Hy-Vee Waverly","address":"1311 4th St SW","state":"IA","city":"Waverly","postal":"50677","priority":1},{"lat":"41.5983492","lng":"-93.8083329","id":5320351,"name":"Hy-Vee West Des Moines","address":"1725 Jordan Creek Pkwy","state":"IA","city":"West Des Moines","postal":"50266","priority":1},{"lat":"41.5975959","lng":"-93.753825","id":5320352,"name":"Hy-Vee West Des Moines #1","address":"1700 Valley West Dr","state":"IA","city":"West Des Moines","postal":"50266","priority":1},{"lat":"41.5705676","lng":"-93.729784","id":5320353,"name":"Hy-Vee West Des Moines #2","address":"1990 Grand Ave","state":"IA","city":"West Des Moines","postal":"50265","priority":1},{"lat":"41.561135","lng":"-93.7748474","id":5320354,"name":"Hy-Vee West Des Moines #4","address":"555 S 51st Street","state":"IA","city":"West Des Moines","postal":"50265","priority":1},{"lat":"41.6010105","lng":"-93.7157455","id":5320355,"name":"Hy-Vee Windsor Heights","address":"7101 University Ave","state":"IA","city":"Windsor Heights","postal":"50324","priority":1},{"lat":"41.3425705","lng":"-94.0122443","id":5320356,"name":"Hy-Vee Winterset","address":"923 N 1st Ave","state":"IA","city":"Winterset","postal":"50273","priority":1},{"lat":"41.3959293","lng":"-92.9023832","id":5320357,"name":"Hy Vee Pella","address":"118 SE 9th St","state":"IA","city":"Pella","postal":"50219","priority":1},{"lat":"41.0116583","lng":"-95.9104307","id":5320358,"name":"Hy Vee Plattsmouth","address":"16418 Westside Dr","state":"NE","city":"Plattsmouth","postal":"68048","priority":1},{"lat":"41.597203","lng":"-93.5194581","id":5320359,"name":"Hy Vee Pleasant Hill","address":"4815 Maple Dr","state":"IA","city":"Pleasant Hill","postal":"50327","priority":1},{"lat":"43.0905555","lng":"-89.3513717","id":5320360,"name":"Jenifer Street Market","address":"2038 Jenifer St","state":"WI","city":"Madison","postal":"53704","priority":1},{"lat":"41.6633908","lng":"-91.5299033","id":5320361,"name":"John's Grocery","address":"401 E Market St","state":"IA","city":"Iowa City","postal":"52245","priority":1},{"lat":"43.0927825","lng":"-88.9136931","id":5320362,"name":"Lake Mills Market","address":"375 West Tyranea Park Rd","state":"WI","city":"Lake Mills","postal":"53551","priority":1},{"lat":"43.0741778","lng":"-89.4524858","id":5320363,"name":"Metcalfe's Hilldale Mall","address":"726 N Midvale Blvd","state":"WI","city":"Madison","postal":"53705","priority":1},{"lat":"43.184804","lng":"-95.4747887","id":5320364,"name":"Miller & Sons","address":"1290 Highway 18 & 151 East","state":"WI","city":"Mount Horeb","postal":"53572","priority":1},{"lat":"41.6539041","lng":"-90.5774336","id":5320366,"name":"North Scott Foods","address":"425 E Le Claire Rd","state":"IA","city":"Eldridge","postal":"52748","priority":1},{"lat":"42.4339034","lng":"-89.3309615","id":5320367,"name":"Pacemaker Junior","address":"101 S Center St","state":"IL","city":"Durand","postal":"61024","priority":1},{"lat":"42.4234853","lng":"-90.4414669","id":5320368,"name":"Piggly Wiggly ","address":"997 Galena Square","state":"IL","city":"Galena","postal":"61036","priority":1},{"lat":"43.1110759","lng":"-89.6409776","id":5320369,"name":"Piggly Wiggly ","address":"28 Glaciers Edge Square","state":"WI","city":"Cross Plains","postal":"53528","priority":1},{"lat":"43.0260275","lng":"-91.1271322","id":5320370,"name":"Piggly Wiggly","address":"30 Riverside Square","state":"WI","city":"Prairie Du Chien","postal":"53821","priority":1},{"lat":"42.8469764","lng":"-89.0574963","id":5320371,"name":"Piggly Wiggly","address":"1211 N. Main St.","state":"WI","city":"Edgerton","postal":"53534","priority":1},{"lat":"42.7697219","lng":"-88.9385432","id":5320372,"name":"Piggly Wiggly","address":"727 S. Janesville St.","state":"WI","city":"Milton","postal":"53563","priority":1},{"lat":"42.8702757","lng":"-90.1766431","id":5320373,"name":"Point Foods","address":"622 Dodge St","state":"WI","city":"Mineral Point","postal":"53565","priority":1},{"lat":"41.6110387","lng":"-93.6725442","id":5320374,"name":"Price Chopper","address":"1819 Beaver Ave.","state":"IA","city":"Des Moines","postal":"50310","priority":1},{"lat":"41.5876864","lng":"-93.6634692","id":5320375,"name":"Price Chopper","address":"3425 Ingersoll Ave.","state":"IA","city":"Des Moines","postal":"50312","priority":1},{"lat":"42.094172","lng":"-91.86892","id":5320378,"name":"Roy's Hometown Grocery","address":"105 Pearl St SW","state":"IA","city":"Shellsburg","postal":"52332","priority":1},{"lat":"42.8137538","lng":"-89.6306815","id":5320379,"name":"Roy's Market","address":"600 Hwy 69","state":"WI","city":"New Glarus","postal":"53574","priority":1},{"lat":"38.5654206","lng":"-90.3963219","id":5320380,"name":"Sam's Club #4741 St. Louis","address":"10248 Big Bend Rd","state":"MO","city":"St. Louis","postal":"63122","priority":1},{"lat":"39.9385083","lng":"-91.328186","id":5320381,"name":"Sam's Club #4999 Quincy","address":"700 N 54th St","state":"IL","city":"Quincy","postal":"62305","priority":1},{"lat":"44.9207263","lng":"-89.6539909","id":5320382,"name":"Sam's Club #6535 Wausau","address":"4000 Rib Mountain Dr","state":"WI","city":"Wausau","postal":"54401","priority":1},{"lat":"40.1390204","lng":"-88.2634558","id":5320383,"name":"Sam's Club #8197 Champaign","address":"915 W Marketview Dr","state":"IL","city":"Champaign","postal":"61821","priority":1},{"lat":"42.002268","lng":"-93.6143033","id":5320384,"name":"Sam's Club Ames","address":"305 Airport Rd.","state":"IA","city":"Ames","postal":"50010","priority":1},{"lat":"41.6908062","lng":"-93.5781057","id":5320385,"name":"Sam's Club Ankeny","address":"4625 SE Delaware Ave","state":"IA","city":"Ankeny","postal":"50021","priority":1},{"lat":"42.0328362","lng":"-91.6800172","id":5320386,"name":"Sam's Club Cedar Rapids #8162","address":"2605 Blairs Ferry Rd NE","state":"IA","city":"Cedar Rapids","postal":"52402","priority":1},{"lat":"41.5593652","lng":"-90.5241833","id":5320387,"name":"Sam's Club Davenport","address":"3845 Elmore Ave.","state":"IA","city":"Davenport","postal":"52807","priority":1},{"lat":"39.9021956","lng":"-88.9514114","id":5320388,"name":"Sam's Club Decatur","address":"4334 N Prospect","state":"IL","city":"Decatur","postal":"62526","priority":1},{"lat":"41.5974742","lng":"-93.7143181","id":5320389,"name":"Sam's Club Des Moines","address":"1101 73rd St","state":"IA","city":"Des Moines","postal":"50311","priority":1},{"lat":"42.5170172","lng":"-90.7387275","id":5320390,"name":"Sam's Club Dubuque","address":"4400 Asbury Road","state":"IA","city":"Dubuque","postal":"52002","priority":1},{"lat":"40.9343288","lng":"-98.3858439","id":5320391,"name":"Sam's Club Grand Island #6461","address":"1510 N. Diers Ave.","state":"NE","city":"Grand Island","postal":"68803","priority":1},{"lat":"40.5235244","lng":"-88.9482696","id":5320392,"name":"Sam's Club Normal","address":"2151 Shephard Rd","state":"IL","city":"Normal","postal":"61761","priority":1},{"lat":"38.594455","lng":"-89.9505721","id":5320393,"name":"Sam's Club O'Fallon","address":"1350 W. Hwy 50","state":"IL","city":"O'Fallon","postal":"62269","priority":1},{"lat":"43.8707368","lng":"-91.2148358","id":5320394,"name":"Sam's Club Onalaska #6436","address":"1211 Crossing Meadows Drive","state":"WI","city":"Onalaska","postal":"54650","priority":1},{"lat":"40.7731801","lng":"-89.654026","id":5320395,"name":"Sam's Club Peoria","address":"4100 W Willow Knolls Dr","state":"IL","city":"Peoria","postal":"61615","priority":1},{"lat":"42.2671303","lng":"-88.9763884","id":5320396,"name":"Sam's Club Rockford","address":"7151 Walton St","state":"IL","city":"Rockford","postal":"61108","priority":1},{"lat":"42.4323321","lng":"-96.3711429","id":5320397,"name":"Sam's Club Sioux City","address":"4201 S York St","state":"IA","city":"Sioux City","postal":"51106","priority":1},{"lat":"39.7719722","lng":"-89.7080567","id":5320398,"name":"Sam's Club Springfield","address":"2300 White Oaks Dr","state":"IL","city":"Springfield","postal":"62704","priority":1},{"lat":"42.4551513","lng":"-92.3523692","id":5320399,"name":"Sam's Club Waterloo","address":"210 E Tower Park Rd","state":"IA","city":"Waterloo","postal":"50702","priority":1},{"lat":"42.0871528","lng":"-89.9744256","id":5320400,"name":"Shaw's Market","address":"848 S Jackson St","state":"IL","city":"Mt Carroll","postal":"61053","priority":1},{"lat":"41.5895147","lng":"-90.6089449","id":5320401,"name":"Slagle Foods","address":"6723 Northwest Blvd","state":"IA","city":"Davenport","postal":"52806","priority":1},{"lat":"42.6835241","lng":"-91.535919","id":5320402,"name":"Strawberry Foods","address":"128 West Mission","state":"IA","city":"Strawberry Point","postal":"52076","priority":1},{"lat":"42.3044028","lng":"-89.6518008","id":5320403,"name":"Sullivan's Foods Freeport","address":"2002 W Galena Ave","state":"IL","city":"Freeport","postal":"61032","priority":1},{"lat":"42.3696374","lng":"-89.8307548","id":5320404,"name":"Sullivan's Foods Lena","address":"201 Dodds Dr","state":"IL","city":"Lena","postal":"61048","priority":1},{"lat":"41.8089028","lng":"-89.9627528","id":5320405,"name":"Sullivan's Foods Morrison","address":"300 N Madison St","state":"IL","city":"Morrison","postal":"61270","priority":1},{"lat":"42.0902897","lng":"-90.1525708","id":5320406,"name":"Sullivan's Foods Savanna","address":"217 Chicago Ave","state":"IL","city":"Savanna","postal":"61074","priority":1},{"lat":"42.3570794","lng":"-90.0085914","id":5320407,"name":"Sullivan's Foods Stockton","address":"103 W. North Ave.","state":"IL","city":"Stockton","postal":"61085","priority":1},{"lat":"42.2767177","lng":"-89.2397375","id":5320408,"name":"Sullivan's Winnebago","address":"703 N Elida St","state":"IL","city":"Winnebago","postal":"61088","priority":1},{"lat":"42.4904434","lng":"-90.7218046","id":5320409,"name":"Target","address":"3500 Dodge Street","state":"IA","city":"Dubuque","postal":"52003","priority":1},{"lat":"41.6923908","lng":"-91.6083867","id":5320410,"name":"Target","address":"1441 Coral Ridge Ave.","state":"IA","city":"Coralville","postal":"52241","priority":1},{"lat":"42.0371222","lng":"-91.6510224","id":5320411,"name":"Target","address":"1030 Blairs Ferry Road NE","state":"IA","city":"Cedar Rapids","postal":"52402","priority":1},{"lat":"41.5731502","lng":"-90.5263731","id":5320413,"name":"Target","address":"5225 Elmore Avenue","state":"IA","city":"Davenport","postal":"52807","priority":1},{"lat":"41.469145","lng":"-90.5243054","id":5320414,"name":"Target","address":"900 42nd Ave Dr.","state":"IL","city":"Moline","postal":"60265","priority":1},{"lat":"42.4809955","lng":"-92.4441915","id":5320415,"name":"Target","address":"214 Viking Plaza Dr.","state":"IA","city":"Cedar Falls","postal":"50613","priority":1},{"lat":"42.4657709","lng":"-92.3280171","id":5320416,"name":"Target","address":"1501 E San Marnan Dr","state":"IA","city":"Waterloo","postal":"50702","priority":1},{"lat":"42.3046245","lng":"-89.3601114","id":5320420,"name":"Topway Foods","address":"1205 Main St","state":"IL","city":"Pecatonica","postal":"61063","priority":1},{"lat":"42.3254549","lng":"-92.601486","id":5320421,"name":"Trunck's Country Foods","address":"606 Grundy Ave","state":"IA","city":"Reinbeck","postal":"50669","priority":1},{"lat":"41.6468501","lng":"-93.5049255","id":5320422,"name":"Walmart Supercenter #2764","address":"3501 8TH ST SW","state":"IA","city":"ALTOONA","postal":"50009","priority":1},{"lat":"42.0531687","lng":"-93.6225718","id":5320423,"name":"Walmart #749","address":"3105 Grand Ave.","city":"Ames","postal":"50010","priority":1},{"lat":"42.0164221","lng":"-93.6069013","id":5320424,"name":"Walmart Supercenter #4256","address":"534 S DUFF AVE","state":"IA","city":"AMES","postal":"50010","priority":1},{"lat":"42.0992168","lng":"-91.2639822","id":5320425,"name":"Walmart Supercenter #646","address":"101 115TH ST","state":"IA","city":"ANAMOSA","postal":"52205","priority":1},{"lat":"41.7052154","lng":"-93.5847494","id":5320426,"name":"Walmart Supercenter #892","address":"1002 SE NATIONAL DR","state":"IA","city":"ANKENY","postal":"50021","priority":1},{"lat":"41.4029112","lng":"-94.9850999","id":5320427,"name":"Walmart Supercenter #3394","address":"1905 E 7TH ST","state":"IA","city":"ATLANTIC","postal":"50022","priority":1},{"lat":"42.5265689","lng":"-88.9859564","id":5320429,"name":"Walmart Supercenter #2532","address":"2785 MILWAUKEE RD","state":"WI","city":"BELOIT","postal":"53511","priority":1},{"lat":"42.2383378","lng":"-88.8174462","id":5320430,"name":"Walmart Supercenter #3597","address":"2101 GATEWAY CENTER DR","state":"IL","city":"BELVIDERE","postal":"61008","priority":1},{"lat":"40.4898318","lng":"-89.0413771","id":5320431,"name":"Walmart Supercenter #3459","address":"2225 W MARKET ST","state":"IL","city":"BLOOMINGTON","postal":"61705","priority":1},{"lat":"42.0364557","lng":"-93.8701436","id":5320432,"name":"Walmart Supercenter #1389","address":"1515 S.E. MARSHALL ST","state":"IA","city":"BOONE","postal":"50036","priority":1},{"lat":"42.0812778","lng":"-94.8932384","id":5320433,"name":"Walmart Supercenter #1787","address":"2014 KITTYHAWK RD","state":"IA","city":"CARROLL","postal":"51401","priority":1},{"lat":"42.0317246","lng":"-91.6819913","id":5320435,"name":"Walmart Supercenter #1528","address":"2645 BLAIRS FERRY RD NE","state":"IA","city":"CEDAR RAPIDS","postal":"52402","priority":1},{"lat":"40.7090767","lng":"-92.8656596","id":5320436,"name":"Walmart Supercenter #1621","address":"23148 HWY 5","state":"IA","city":"CENTERVILLE","postal":"52544","priority":1},{"lat":"41.8185175","lng":"-90.2429374","id":5320437,"name":"Walmart Supercenter #2889","address":"2715 S 25TH ST","state":"IA","city":"CLINTON","postal":"52732","priority":1},{"lat":"41.6964816","lng":"-91.6123425","id":5320438,"name":"Walmart Supercenter #2827","address":"2801 COMMERCE DR","state":"IA","city":"CORALVILLE","postal":"52241","priority":1},{"lat":"41.2273404","lng":"-95.8437909","id":5320439,"name":"Walmart Supercenter #1965","address":"3201 MANAWA CENTRE DR","state":"IA","city":"COUNCIL BLUFFS","postal":"51501","priority":1},{"lat":"41.2798723","lng":"-95.8688546","id":5320440,"name":"Walmart Supercenter #3150","address":"1800 N. 16TH ST.","state":"IA","city":"COUNCIL BLUFFS","postal":"51501","priority":1},{"lat":"41.579391","lng":"-90.5263731","id":5320441,"name":"Walmart Supercenter #1241","address":"5811 ELMORE AVE","state":"IA","city":"DAVENPORT","postal":"52807","priority":1},{"lat":"41.5573787","lng":"-90.6224891","id":5320442,"name":"Walmart Supercenter #5115","address":"3101 W KIMBERLY RD","state":"IA","city":"DAVENPORT","postal":"52806","priority":1},{"lat":"39.8997851","lng":"-88.9512618","id":5320443,"name":"Walmart Supercenter #1690","address":"4224 N PROSPECT ST","state":"IL","city":"DECATUR","postal":"62526","priority":1},{"lat":"39.8181478","lng":"-88.8829843","id":5320444,"name":"Walmart Supercenter #2728","address":"4625 E MARYLAND ST","state":"IL","city":"DECATUR","postal":"62521","priority":1},{"lat":"42.0261271","lng":"-95.3715457","id":5320446,"name":"Walmart Supercenter #1732","address":"510 AVENUE C","state":"IA","city":"DENISON","postal":"51442","priority":1},{"lat":"42.9737083","lng":"-90.120108","id":5320447,"name":"Walmart Supercenter #847","address":"601 E LEFFLER ST","state":"WI","city":"DODGEVILLE","postal":"53533","priority":1},{"lat":"42.4875903","lng":"-90.7363519","id":5320448,"name":"Walmart Supercenter #2004","address":"4200 DODGE ST","state":"IA","city":"DUBUQUE","postal":"52003","priority":1},{"lat":"40.6831022","lng":"-89.584831","id":5320449,"name":"Walmart Supercenter #1028","address":"401 RIVER RD","state":"IL","city":"EAST PEORIA","postal":"61611","priority":1},{"lat":"41.007688","lng":"-91.9932678","id":5320450,"name":"Walmart Supercenter #985","address":"2701 W BURLINGTON AVE","state":"IA","city":"FAIRFIELD","postal":"52556","priority":1},{"lat":"42.5062194","lng":"-94.1536158","id":5320451,"name":"Walmart Supercenter #886","address":"3036 1ST AVE S","state":"IA","city":"FORT DODGE","postal":"50501","priority":1},{"lat":"42.2643042","lng":"-89.6284012","id":5320452,"name":"Walmart Supercenter #1740","address":"2545 IL ROUTE 26 S","state":"IL","city":"FREEPORT","postal":"61032","priority":1},{"lat":"42.4351129","lng":"-90.4455454","id":5320453,"name":"Walmart Supercenter #5044","address":"10000 BARTEL BLVD","state":"IL","city":"GALENA","postal":"61036","priority":1},{"lat":"41.7219298","lng":"-92.7308613","id":5320454,"name":"Walmart Supercenter #647","address":"415 INDUSTRIAL AVE","state":"IA","city":"GRINNELL","postal":"50112","priority":1},{"lat":"42.4518122","lng":"-91.8932875","id":5320455,"name":"Walmart Supercenter #750","address":"302 ENTERPRISE DR","state":"IA","city":"INDEPENDENCE","postal":"50644","priority":1},{"lat":"41.3736597","lng":"-93.5556503","id":5320456,"name":"Walmart Supercenter #1491","address":"1500 N JEFFERSON WAY","state":"IA","city":"INDIANOLA","postal":"50125","priority":1},{"lat":"41.6440604","lng":"-91.5514351","id":5320457,"name":"Walmart Supercenter #1721","address":"919 HIGHWAY 1 W","state":"IA","city":"IOWA CITY","postal":"52246","priority":1},{"lat":"42.5024268","lng":"-93.2604057","id":5320458,"name":"Walmart  #1546","address":"840 S OAK ST","state":"IA","city":"IOWA FALLS","postal":"50126","priority":1},{"lat":"42.7254394","lng":"-88.9865543","id":5320459,"name":"Walmart Supercenter #1305","address":"3800 DEERFIELD DR","state":"WI","city":"JANESVILLE","postal":"53546","priority":1},{"lat":"40.4182323","lng":"-91.4102571","id":5320460,"name":"Walmart Supercenter #1431","address":"300 NO. PARK DRIVE","state":"IA","city":"KEOKUK","postal":"52632","priority":1},{"lat":"41.3047744","lng":"-93.1060044","id":5320461,"name":"Walmart Supercenter #2935","address":"814 W BELL AVE","state":"IA","city":"KNOXVILLE","postal":"50138","priority":1},{"lat":"42.7819232","lng":"-96.1876709","id":5320462,"name":"Walmart Supercenter #1625","address":"1111 HOLTON DR","state":"IA","city":"LE MARS","postal":"51031","priority":1},{"lat":"43.1110204","lng":"-89.3127613","id":5320463,"name":"Walmart Supercenter #2335","address":"4198 NAKOOSA TRL","state":"WI","city":"MADISON","postal":"53714","priority":1},{"lat":"42.4821375","lng":"-91.4780671","id":5320464,"name":"Walmart Supercenter #1506","address":"1220 W MAIN ST","state":"IA","city":"MANCHESTER","postal":"52057","priority":1},{"lat":"42.0487492","lng":"-90.6627786","id":5320465,"name":"Walmart Supercenter #1509","address":"103 E CARLISLE","state":"IA","city":"MAQUOKETA","postal":"52060","priority":1},{"lat":"42.0123556","lng":"-92.9094816","id":5320466,"name":"Walmart Supercenter #581","address":"2802 S CENTER ST","state":"IA","city":"MARSHALLTOWN","postal":"50158","priority":1},{"lat":"41.4685594","lng":"-90.4799928","id":5320468,"name":"Walmart Supercenter #2231","address":"3930 44TH AVENUE DR","state":"IL","city":"MOLINE","postal":"61265","priority":1},{"lat":"43.0422376","lng":"-89.349668","id":5320469,"name":"Walmart Supercenter #3857","address":"2151 ROYAL AVE","state":"WI","city":"MONONA","postal":"53713","priority":1},{"lat":"42.6095721","lng":"-89.6631051","id":5320470,"name":"Walmart Supercenter #802","address":"300 6TH AVE WEST","state":"WI","city":"MONROE","postal":"53566","priority":1},{"lat":"40.9793412","lng":"-91.5408381","id":5320471,"name":"Walmart Supercenter #784","address":"1045 N GRAND AVE","state":"IA","city":"MOUNT PLEASANT","postal":"52641","priority":1},{"lat":"41.4576527","lng":"-91.0254059","id":5320472,"name":"Walmart Supercenter #559","address":"3003 N HIGHWAY 61","state":"IA","city":"MUSCATINE","postal":"52761","priority":1},{"lat":"41.6972016","lng":"-93.0117856","id":5320473,"name":"Walmart Supercenter #748","address":"300 IOWA SPEEDWAY DR","state":"IA","city":"NEWTON","postal":"50208","priority":1},{"lat":"40.5149494","lng":"-88.9491673","id":5320474,"name":"Walmart Supercenter #1125","address":"300 GREENBRIAR DR","state":"IL","city":"NORMAL","postal":"61761","priority":1},{"lat":"41.0232317","lng":"-93.8003524","id":5320475,"name":"Walmart Supercenter #4606","address":"2400 COLLEGE DR","state":"IA","city":"OSCEOLA","postal":"50213","priority":1},{"lat":"41.2986116","lng":"-92.6699998","id":5320476,"name":"Walmart Supercenter #1393","address":"2203 AVENUE A WEST","state":"IA","city":"OSKALOOSA","postal":"52577","priority":1},{"lat":"41.0123879","lng":"-92.4557788","id":5320477,"name":"Walmart Supercenter #1285","address":"1940 VENTURE DR","state":"IA","city":"OTTUMWA","postal":"52501","priority":1},{"lat":"40.5379155","lng":"-89.5949919","id":5320478,"name":"Walmart Supercenter #603","address":"3320 VETERANS DR","state":"IL","city":"PEKIN","postal":"61554","priority":1},{"lat":"41.4125749","lng":"-92.9336712","id":5320479,"name":"Walmart Supercenter #751","address":"1650 WASHINGTON ST","state":"IA","city":"PELLA","postal":"50219","priority":1},{"lat":"43.5711992","lng":"-89.4733315","id":5320481,"name":"Walmart Supercenter #1799","address":"2950 NEW PINERY RD","state":"WI","city":"PORTAGE","postal":"53901","priority":1},{"lat":"43.0179255","lng":"-91.1079462","id":5320482,"name":"Walmart Supercenter #882","address":"38020 US HIGHWAY 18","state":"WI","city":"PRAIRIE DU CHIEN","postal":"53821","priority":1},{"lat":"42.3150295","lng":"-89.0319713","id":5320483,"name":"Walmart Supercenter #1955","address":"3849 NORTHRIDGE DR","state":"IL","city":"ROCKFORD","postal":"61114","priority":1},{"lat":"42.4542035","lng":"-89.0245048","id":5320484,"name":"Walmart Supercenter #3837","address":"4781 E. Rockton Rd.","city":"Roscoe","postal":"61073","priority":1},{"lat":"40.7619288","lng":"-95.3823404","id":5320485,"name":"Walmart Supercenter #1683","address":"705 S FREMONT STREET","state":"IA","city":"SHENANDOAH","postal":"51601","priority":1},{"lat":"41.4946413","lng":"-90.4022107","id":5320486,"name":"Walmart Supercenter #4511","address":"1601 18TH ST","state":"IL","city":"SILVIS","postal":"61282","priority":1},{"lat":"43.059787","lng":"-96.1808738","id":5320487,"name":"Walmart Supercenter #1152","address":"255 - 16TH ST SW","state":"IA","city":"SIOUX CENTER","postal":"51250","priority":1},{"lat":"42.4336738","lng":"-96.3634609","id":5320488,"name":"Walmart Supercenter #1361","address":"3400 SINGING HILLS BLVD","state":"IA","city":"SIOUX CITY","postal":"51106","priority":1},{"lat":"42.5320667","lng":"-96.3748013","id":5320489,"name":"Walmart Supercenter #3590","address":"3101 FLOYD BLVD","state":"IA","city":"SIOUX CITY","postal":"51108","priority":1},{"lat":"43.1251976","lng":"-95.1526552","id":5320490,"name":"Walmart Supercenter #2714","address":"500 11TH ST SW","state":"IA","city":"SPENCER","postal":"51301","priority":1},{"lat":"39.7518543","lng":"-89.7105525","id":5320492,"name":"Walmart Supercenter #1602","address":"3401 FREEDOM DR","state":"IL","city":"SPRINGFIELD","postal":"62704","priority":1},{"lat":"39.8395435","lng":"-89.6007338","id":5320493,"name":"Walmart Supercenter #3210","address":"2760 NO. DIRKSEN PKWY","state":"IL","city":"SPRINGFIELD","postal":"62702","priority":1},{"lat":"39.7450543","lng":"-89.6395804","id":5320494,"name":"Walmart Supercenter #3602","address":"1100 LEJUNE DR","state":"IL","city":"SPRINGFIELD","postal":"62703","priority":1},{"lat":"42.6641559","lng":"-95.1969858","id":5320495,"name":"Walmart Supercenter #1526","address":"1831 LAKE AVE","state":"IA","city":"STORM LAKE","postal":"50588","priority":1},{"lat":"42.9196","lng":"-89.243","id":5320496,"name":"Walmart Supercenter #1176","address":"2600 State Highway 138","state":"WI","city":"Stoughton","postal":"53589","priority":1},{"lat":"43.1738782","lng":"-89.2474971","id":5320497,"name":"Walmart Supercenter #1267","address":"1905 MCCOY ROAD","state":"WI","city":"SUN PRAIRIE","postal":"53590","priority":1},{"lat":"42.4583583","lng":"-92.3304826","id":5320499,"name":"Walmart Supercenter #1496","address":"1334 FLAMMANG DR","state":"IA","city":"WATERLOO","postal":"50702","priority":1},{"lat":"42.7015801","lng":"-92.479703","id":5320500,"name":"Walmart Supercenter #1005","address":"2700 4TH ST SW","state":"IA","city":"WAVERLY","postal":"50677","priority":1},{"lat":"40.8141761","lng":"-91.1609115","id":5320501,"name":"Walmart Supercenter #797","address":"324 W AGENCY RD","state":"IA","city":"WEST BURLINGTON","postal":"52655","priority":1},{"lat":"41.5582444","lng":"-93.796361","id":5320502,"name":"Walmart Supercenter #3762","address":"6365 STAGECOACH DR","state":"IA","city":"WEST DES MOINES","postal":"50266","priority":1},{"lat":"43.5848655","lng":"-89.8121571","id":5320503,"name":"Walmart Supercenter #3505","address":"130 COMMERCE ST","state":"WI","city":"WISCONSIN DELLS","postal":"53965","priority":1},{"lat":"42.8532731","lng":"-91.4035802","id":5320504,"name":"Wilke's Sure Save","address":"204 S. Main Street","state":"IA","city":"Elkader","postal":"52043","priority":1},{"lat":"44.2674989","lng":"-88.4630972","id":5320505,"name":"Woodman's Markets","address":"595 North Westhill Blvd","state":"WI","city":"Appleton","postal":"54914","priority":1},{"lat":"42.5246835","lng":"-89.0712225","id":5320506,"name":"Woodman's Markets","address":"1877 S Madison Rd","state":"WI","city":"Beloit","postal":"53511","priority":1},{"lat":"42.119763","lng":"-88.338402","id":5320507,"name":"Woodman's Markets","address":"2100 Randall Rd","state":"IL","city":"Carpentersville","postal":"60110","priority":1},{"lat":"44.8158192","lng":"-91.4573477","id":5320508,"name":"Woodman's Markets","address":"2855 Woodman Ave","state":"WI","city":"Altoona","postal":"54720","priority":1},{"lat":"44.5435359","lng":"-88.0772263","id":5320509,"name":"Woodman's Markets","address":"2400 Duck Creek Parkway","state":"WI","city":"Green Bay","postal":"54303","priority":1},{"lat":"42.7163618","lng":"-88.9961199","id":5320510,"name":"Woodman's Markets","address":"2819 Lexington Dr","state":"WI","city":"Janesville","postal":"53545","priority":1},{"lat":"42.570323","lng":"-87.9478783","id":5320511,"name":"Woodman's Markets","address":"7145 120th Ave","state":"WI","city":"Kenosha","postal":"53142","priority":1},{"lat":"43.0968075","lng":"-89.3189585","id":5320512,"name":"Woodman's Markets","address":"3817 Milwaukee St","state":"WI","city":"Madison","postal":"53714","priority":1},{"lat":"43.048911","lng":"-89.5006455","id":5320513,"name":"Woodman's Markets","address":"725 South Gammon Rd","state":"WI","city":"Madison","postal":"53719","priority":1},{"lat":"43.1650894","lng":"-88.0662554","id":5320514,"name":"Woodman's Markets","address":"W124N8145 Wisconsin 145","state":"WI","city":"Menomonee Falls","postal":"53051","priority":1},{"lat":"41.8041407","lng":"-88.3697628","id":5320515,"name":"Woodman's Markets","address":"151 Hansen Blvd","state":"IL","city":"North Aurora","postal":"60542","priority":1},{"lat":"42.8969278","lng":"-87.9153996","id":5320516,"name":"Woodman's Markets","address":"8131 S Howell Ave","state":"WI","city":"Oak Creek","postal":"53154","priority":1},{"lat":"43.8793807","lng":"-91.176216","id":5320517,"name":"Woodman's Markets","address":"9515 Wisconsin 16","state":"WI","city":"Onalaska","postal":"54650","priority":1},{"lat":"42.3073008","lng":"-88.9747436","id":5320518,"name":"Woodman's Markets","address":"3155 McFarland Rd","state":"IL","city":"Rockford","postal":"61114","priority":1},{"lat":"43.1645509","lng":"-89.266922","id":5320519,"name":"Woodman's Markets","address":"1099 South Grand Ave","state":"WI","city":"Sun Prairie","postal":"53590","priority":1},{"lat":"43.0221504","lng":"-88.2044193","id":5320520,"name":"Woodman's Markets","address":"1600 E Main St","state":"WI","city":"Waukesha","postal":"53186","priority":1},{"lat":"41.141851","lng":"-95.9131238","id":9720943,"name":"Family Fare","tagsvalue":"united_states","tags":[{"tag":"united_states"}],"address":"1510 Harlan Drive","country":"USA","state":"NE","city":"Bellevue","postal":"68005","priority":1},{"lat":"41.2445314","lng":"-95.8256592","id":9720944,"name":"Hy-Vee","tagsvalue":"united_states","tags":[{"tag":"united_states"}],"address":"1745 Madison Ave","country":"USA","state":"IA","city":"Council Bluffs","postal":"51503","priority":1},{"lat":"41.2611935","lng":"-95.8790906","id":9720945,"name":"Hy-Vee","tagsvalue":"united_states","tags":[{"tag":"united_states"}],"address":"2323 W Broadway","country":"USA","state":"IA","city":"Council Bluffs","postal":"51501","priority":1},{"lat":"40.8144904","lng":"-96.7417411","id":9720946,"name":"Schmick's","tagsvalue":"united_states","tags":[{"tag":"united_states"}],"address":"1340 W O Street","country":"USA","state":"NE","city":"Lincoln","postal":"68528","priority":1},{"lat":"40.8400139","lng":"-96.785239","id":9720947,"name":"IGA","tagsvalue":"united_states","tags":[{"tag":"united_states"}],"address":"4646 W Huntington Ave #1","country":"USA","state":"NE","city":"Lincoln","postal":"68524","priority":1},{"lat":"40.8395581","lng":"-96.7065078","id":9720948,"name":"Schmick's","tagsvalue":"united_states","tags":[{"tag":"united_states"}],"address":"2727 N 11th St","country":"USA","state":"NE","city":"Lincoln","postal":"68521","priority":1},{"lat":"41.2324232","lng":"-95.9417141","id":9720950,"name":"Supermercado Nuestra Familia","tagsvalue":"united_states","tags":[{"tag":"united_states"}],"address":"1826 Vinton","country":"USA","state":"NE","city":"Omaha","postal":"58108","priority":1},{"lat":"41.2529154","lng":"-95.9553385","id":9720951,"name":"Supermercado Nuestra Familia","tagsvalue":"united_states","tags":[{"tag":"united_states"}],"address":"2900 Leavenworth","country":"USA","state":"NE","city":"Omaha","postal":"68105","priority":1},{"lat":"41.2062404","lng":"-96.0835583","id":9720952,"name":"Family Fare","tagsvalue":"united_states","tags":[{"tag":"united_states"}],"address":"5110 S 108th Street","country":"USA","state":"NE","city":"Omaha","postal":"68137","priority":1},{"lat":"41.2060235","lng":"-95.9665358","id":9720953,"name":"Supermercado Nuestra Familia","tagsvalue":"united_states","tags":[{"tag":"united_states"}],"address":"3548 Q Street","country":"USA","state":"NE","city":"Omaha","postal":"68107","priority":1},{"lat":"41.2360082","lng":"-96.1402724","id":9720954,"name":"Family Fare","tagsvalue":"united_states","tags":[{"tag":"united_states"}],"address":"14444 W Center Road","country":"USA","state":"NE","city":"Omaha","postal":"68144","priority":1},{"lat":"41.25031","lng":"-96.1942733","id":9720955,"name":"Hy-Vee","tagsvalue":"united_states","tags":[{"tag":"united_states"}],"address":"1000 S 178th Street","country":"USA","state":"NE","city":"Omaha","postal":"68118","priority":1},{"lat":"41.2662034","lng":"-96.1190502","id":9720956,"name":"Hy-Vee","tagsvalue":"united_states","tags":[{"tag":"united_states"}],"address":"747 N 132nd Street","country":"USA","state":"NE","city":"Omaha","postal":"68154","priority":1},{"lat":"41.2833901","lng":"-96.0545178","id":9720957,"name":"Family Fare","tagsvalue":"united_states","tags":[{"tag":"united_states"}],"address":"2650 N 90th Street","country":"USA","state":"NE","city":"Omaha","postal":"68134","priority":1},{"lat":"41.3271267","lng":"-95.9599273","id":9720958,"name":"Family Fare","tagsvalue":"united_states","tags":[{"tag":"united_states"}],"address":"7402 Noth 30th Street","country":"USA","state":"NE","city":"Omaha","postal":"68112","priority":1},{"lat":"41.1750074","lng":"-96.0449234","id":9720959,"name":"Family Fare","tagsvalue":"united_states","tags":[{"tag":"united_states"}],"address":"1230 North Washington","country":"USA","state":"NE","city":"Papillion","postal":"68046","priority":1},{"lat":"41.0116583","lng":"-95.9104307","id":9720960,"name":"Hy-Vee","tagsvalue":"united_states","tags":[{"tag":"united_states"}],"address":"16418 Westside Drive","country":"USA","state":"NE","city":"Plattsmouth","postal":"68048","priority":1},{"lat":"42.4694387","lng":"-96.4274298","id":9720961,"name":"Hy-Vee","tagsvalue":"united_states","tags":[{"tag":"united_states"}],"address":"2150 Cornhusker Dr","country":"USA","state":"NE","city":"South Sioux City","postal":"68776","priority":1},{"lat":"44.7148803","lng":"-93.1758871","id":9720962,"name":"Hy-Vee","tagsvalue":"united_states","tags":[{"tag":"united_states"}],"address":"16150 Pilot Knob Rd","country":"USA","state":"MN","city":"Lakeville","postal":"55044","priority":1},{"lat":"44.8344097","lng":"-93.1713768","id":9720963,"name":"Hy-Vee","tagsvalue":"united_states","tags":[{"tag":"united_states"}],"address":"1500 Central Park Commons Dr","country":"USA","state":"MN","city":"Eagan","postal":"55121","priority":1},{"lat":"44.7795962","lng":"-93.5391709","id":9720965,"name":"Hy-Vee","tagsvalue":"united_states","tags":[{"tag":"united_states"}],"address":"1451 Adams St S","country":"USA","state":"MN","city":"Shakopee","postal":"55379","priority":1},{"lat":"45.0828051","lng":"-93.5175085","id":9720969,"name":"Hy-Vee","tagsvalue":"united_states","tags":[{"tag":"united_states"}],"address":"18755 70th Way N","country":"USA","state":"MN","city":"Maple Grove","postal":"55311","priority":1},{"lat":"45.1263509","lng":"-93.3595351","id":9720970,"name":"Hy-Vee","tagsvalue":"united_states","tags":[{"tag":"united_states"}],"address":"9409 Zane Ave N","country":"USA","state":"MN","city":"Brooklyn Park","postal":"55443","priority":1},{"lat":"45.1156461","lng":"-93.2400502","id":9720971,"name":"Hy-Vee","tagsvalue":"united_states","tags":[{"tag":"united_states"}],"address":"8155 Hwy 65 NE","country":"USA","state":"MN","city":"Spring Lake Park","postal":"55432","priority":1},{"lat":"45.016273","lng":"-93.0217552","id":9720972,"name":"Hy-Vee","tagsvalue":"united_states","tags":[{"tag":"united_states"}],"address":"2501 White Bear Ave","country":"USA","state":"MN","city":"Maplewood","postal":"55109","priority":1},{"lat":"44.9647996","lng":"-92.9605315","id":9720973,"name":"Hy-Vee","tagsvalue":"united_states","tags":[{"tag":"united_states"}],"address":"7180 10th St N","country":"USA","state":"MN","city":"Oakdale","postal":"55128","priority":1},{"lat":"44.8324127","lng":"-92.9580683","id":9720974,"name":"Hy-Vee","tagsvalue":"united_states","tags":[{"tag":"united_states"}],"address":"7280 E Point Douglas Rd S","country":"USA","state":"MN","city":"Cottage Grove","postal":"55016","priority":1},{"lat":"44.5419942","lng":"-93.5624491","id":9720975,"name":"Hy-Vee","tagsvalue":"united_states","tags":[{"tag":"united_states"}],"address":"200 Tenth Ave SE","country":"USA","state":"MN","city":"New Prague","postal":"56071","priority":1},{"lat":"44.0050514","lng":"-92.4701511","id":9720976,"name":"Hy-Vee","tagsvalue":"united_states","tags":[{"tag":"united_states"}],"address":"500 Crossroads Dr SW","country":"USA","state":"MN","city":"Rochester","postal":"55902","priority":1},{"lat":"44.0298686","lng":"-92.4814616","id":9720977,"name":"Hy-Vee","tagsvalue":"united_states","tags":[{"tag":"united_states"}],"address":"1315 6th St NW,","country":"USA","state":"MN","city":"Rochester","postal":"55901","priority":1},{"lat":"44.0597702","lng":"-92.4695328","id":9720978,"name":"Hy-Vee","tagsvalue":"united_states","tags":[{"tag":"united_states"}],"address":"500 37th St NW,","country":"USA","state":"MN","city":"Rochester","postal":"55901","priority":1},{"lat":"44.0664269","lng":"-92.5253639","id":9720979,"name":"Hy-Vee","tagsvalue":"united_states","tags":[{"tag":"united_states"}],"address":"4221 W Circle Dr NW,","country":"USA","state":"MN","city":"Rochester","postal":"55901","priority":1},{"lat":"39.2461283","lng":"-94.6465201","id":9720980,"name":"Hy-Vee","tagsvalue":"united_states","tags":[{"tag":"united_states"}],"address":"8301 N St Claire Ave","country":"USA","state":"MO","city":"Kansas City","postal":"64151","priority":1},{"lat":"39.7990575","lng":"-94.8135912","id":9720981,"name":"Ray's Green Hill","tagsvalue":"united_states","tags":[{"tag":"united_states"}],"address":"3225 N Belt Hwy","country":"USA","state":"MO","city":"St Joseph","postal":"64506","priority":1},{"lat":"39.7680323","lng":"-94.8029029","id":9720982,"name":"Hy-Vee","tagsvalue":"united_states","tags":[{"tag":"united_states"}],"address":"201 N Belt Hwy","country":"USA","state":"MO","city":"St Joseph","postal":"64506","priority":1},{"lat":"39.2113835","lng":"-94.6413221","id":9720983,"name":"Hy-Vee","tagsvalue":"united_states","tags":[{"tag":"united_states"}],"address":"5330 NW 64th St","country":"USA","state":"MO","city":"Kansas City","postal":"64151","priority":1},{"lat":"39.22322","lng":"-94.5464871","id":9720985,"name":"Hy-Vee","tagsvalue":"united_states","tags":[{"tag":"united_states"}],"address":"7117 North Prospect Avenue","country":"USA","state":"MO","city":"Gladstone","postal":"64119","priority":1},{"lat":"39.2458506","lng":"-94.4469925","id":9720986,"name":"Hy-Vee","tagsvalue":"united_states","tags":[{"tag":"united_states"}],"address":"109 N Blue Jay Dr","country":"USA","state":"MO","city":"Liberty","postal":"64068","priority":1},{"lat":"39.3367955","lng":"-94.2485567","id":9720987,"name":"Price Chopper","tagsvalue":"united_states","tags":[{"tag":"united_states"}],"address":"1645 Kearney Road","country":"USA","state":"MO","city":"Excelsior Springs","postal":"64024","priority":1},{"lat":"39.0797224","lng":"-94.4448212","id":9720988,"name":"Price Chopper","tagsvalue":"united_states","tags":[{"tag":"united_states"}],"address":"2301 S Sterling Ave","country":"USA","state":"MO","city":"Independence","postal":"64052","priority":1},{"lat":"39.0772318","lng":"-94.3941607","id":9720989,"name":"Hy-Vee","tagsvalue":"united_states","tags":[{"tag":"united_states"}],"address":"1525 E 23rd St S","country":"USA","state":"MO","city":"Independence","postal":"64055","priority":1},{"lat":"39.0766268","lng":"-94.3826929","id":9720990,"name":"Price Chopper","tagsvalue":"united_states","tags":[{"tag":"united_states"}],"address":"16611 E 23rd Street","country":"USA","state":"MO","city":"Independence","postal":"64055","priority":1},{"lat":"39.0436996","lng":"-94.4112967","id":9720991,"name":"Price Chopper","tagsvalue":"united_states","tags":[{"tag":"united_states"}],"address":"4201 S Noland Road","country":"USA","state":"MO","city":"Independence","postal":"64055","priority":1},{"lat":"39.0372873","lng":"-94.4143474","id":9720992,"name":"Hy-Vee","tagsvalue":"united_states","tags":[{"tag":"united_states"}],"address":"4545 S Noland Rd","country":"USA","state":"MO","city":"Independence","postal":"64055","priority":1},{"lat":"39.0113749","lng":"-94.127629","id":9720993,"name":"HyVee Dollar Fresh","tagsvalue":"united_states","tags":[{"tag":"united_states"}],"address":"503 So Boardway","country":"USA","state":"MO","city":"Oak Grove","postal":"64075","priority":1},{"lat":"38.9190536","lng":"-94.359564","id":9720994,"name":"Hy-Vee","tagsvalue":"united_states","tags":[{"tag":"united_states"}],"address":"301 NE Rice Rd","country":"USA","state":"MO","city":"Lees Summit","postal":"64086","priority":1},{"lat":"38.9098046","lng":"-94.3977964","id":9720995,"name":"Hy-Vee","tagsvalue":"united_states","tags":[{"tag":"united_states"}],"address":"310 SW Ward Rd","country":"USA","state":"MO","city":"Lees Summit","postal":"64081","priority":1},{"lat":"38.9290642","lng":"-94.4147344","id":9720996,"name":"McKeever Market","tagsvalue":"united_states","tags":[{"tag":"united_states"}],"address":"840 NW Pryor Road","country":"USA","state":"MO","city":"Lees Summit","postal":"64081","priority":1},{"lat":"38.9915285","lng":"-94.4692413","id":9720997,"name":"Hy-Vee","tagsvalue":"united_states","tags":[{"tag":"united_states"}],"address":"9400 Rt-350 W","country":"USA","state":"MO","city":"Raytown","postal":"64133","priority":1},{"lat":"38.885296","lng":"-94.6277641","id":9720998,"name":"Price Chopper","tagsvalue":"united_states","tags":[{"tag":"united_states"}],"address":"13351 Mission Road","country":"USA","state":"KS","city":"Leawood","postal":"66209","priority":1},{"lat":"38.8531777","lng":"-94.6696403","id":9720999,"name":"Price Chopper","tagsvalue":"united_states","tags":[{"tag":"united_states"}],"address":"7201 W 151st Street","country":"USA","state":"KS","city":"Overland Park","postal":"66223","priority":1},{"lat":"38.6222445","lng":"-94.6910636","id":9721000,"name":"Price Chopper","tagsvalue":"united_states","tags":[{"tag":"united_states"}],"address":"1400 W Amity Road","country":"USA","state":"KS","city":"Louisburg","postal":"66053","priority":1},{"lat":"38.5731082","lng":"-94.8630027","id":9721001,"name":"Price Chopper","tagsvalue":"united_states","tags":[{"tag":"united_states"}],"address":"309 N Hospital Rd","country":"USA","state":"KS","city":"Paola","postal":"66071","priority":1},{"lat":"38.7220564","lng":"-94.8309207","id":9721002,"name":"Price Chopper","tagsvalue":"united_states","tags":[{"tag":"united_states"}],"address":"22350 S Harrison Rd","country":"USA","state":"KS","city":"Spring Hill","postal":"66083","priority":1},{"lat":"38.8824757","lng":"-94.8364284","id":9721003,"name":"Price Chopper","tagsvalue":"united_states","tags":[{"tag":"united_states"}],"address":"175 N Parker","country":"USA","state":"KS","city":"Olathe","postal":"66061","priority":1},{"lat":"38.8548932","lng":"-94.8056824","id":9721004,"name":"Hy-Vee","tagsvalue":"united_states","tags":[{"tag":"united_states"}],"address":"14955 W 151st St","country":"USA","state":"KS","city":"Olathe","postal":"66062","priority":1},{"lat":"38.8864399","lng":"-94.7214476","id":9721006,"name":"Price Chopper","tagsvalue":"united_states","tags":[{"tag":"united_states"}],"address":"11700 W. 135th Street","country":"USA","state":"KS","city":"Overland Park","postal":"66221","priority":1},{"lat":"38.8854852","lng":"-94.6884785","id":9721007,"name":"HyVee","tagsvalue":"united_states","tags":[{"tag":"united_states"}],"address":"8900 W 135th Street","country":"USA","state":"KS","city":"Overland Park","postal":"66221","priority":1},{"lat":"39.088943","lng":"-94.8830229","id":9721008,"name":"Price Chopper","tagsvalue":"united_states","tags":[{"tag":"united_states"}],"address":"501 S Commercial Dr","country":"USA","state":"KS","city":"Bonner Springs","postal":"66012","priority":1},{"lat":"39.0148897","lng":"-94.7425784","id":9721009,"name":"HyVee","tagsvalue":"united_states","tags":[{"tag":"united_states"}],"address":"13500 W 63rd St","country":"USA","state":"KS","city":"Shawnee","postal":"66216","priority":1},{"lat":"38.9723233","lng":"-94.7412548","id":9721010,"name":"HyVee","tagsvalue":"united_states","tags":[{"tag":"united_states"}],"address":"13400 W 87TH Street Pkwy","country":"USA","state":"KS","city":"Lenexa","postal":"66215","priority":1},{"lat":"38.9687112","lng":"-94.7740882","id":9721011,"name":"McKeever Market","tagsvalue":"united_states","tags":[{"tag":"united_states"}],"address":"8800 Maurer Blvd","country":"USA","state":"KS","city":"Lenexa","postal":"66219","priority":1},{"lat":"38.9718063","lng":"-94.6875092","id":9721012,"name":"Price Chopper","tagsvalue":"united_states","tags":[{"tag":"united_states"}],"address":"8686 Antioch Rd","country":"USA","state":"KS","city":"Overland Park","postal":"66212","priority":1},{"lat":"38.9556909","lng":"-94.6836318","id":9721013,"name":"Hy-Vee","tagsvalue":"united_states","tags":[{"tag":"united_states"}],"address":"8501 W 95th St","country":"USA","state":"KS","city":"Overland Park","postal":"66212","priority":1},{"lat":"38.9110474","lng":"-94.7951339","id":9721014,"name":"Hy-Vee","tagsvalue":"united_states","tags":[{"tag":"united_states"}],"address":"18101 W 119th St","country":"USA","state":"KS","city":"Olathe","postal":"66061","priority":1},{"lat":"38.9432627","lng":"-94.8133483","id":9721015,"name":"Price Chopper","tagsvalue":"united_states","tags":[{"tag":"united_states"}],"address":"19601 W 101st Street","country":"USA","state":"KS","city":"Lenexa","postal":"66220","priority":1},{"lat":"39.0190008","lng":"-94.6623114","id":9721016,"name":"HyVee","tagsvalue":"united_states","tags":[{"tag":"united_states"}],"address":"6655 Mart Way","country":"USA","state":"KS","city":"Mission","postal":"66202","priority":1},{"lat":"38.989934","lng":"-94.6097437","id":9721017,"name":"HyVee","tagsvalue":"united_states","tags":[{"tag":"united_states"}],"address":"7620 State Line Rd","country":"USA","state":"KS","city":"Prairie Village","postal":"66208","priority":1},{"lat":"38.8118317","lng":"-94.5136239","id":9721018,"name":"HyVee","tagsvalue":"united_states","tags":[{"tag":"united_states"}],"address":"1307 East North Ave.","country":"USA","state":"MO","city":"Belton","postal":"64012","priority":1},{"lat":"41.8289914","lng":"-94.1045317","id":9721019,"name":"HyVee","tagsvalue":"united_states","tags":[{"tag":"united_states"}],"address":"1215 141st Street","country":"USA","state":"IA","city":"Perry","postal":"50220","priority":1},{"lat":"41.6099456","lng":"-94.0179077","id":9721020,"name":"Fareway","tagsvalue":"united_states","tags":[{"tag":"united_states"}],"address":"804 Nile Kinnick Drive South","country":"USA","state":"IA","city":"Adel","postal":"50003","priority":1},{"lat":"41.6031849","lng":"-93.7567615","id":9721021,"name":"Fareway","tagsvalue":"united_states","tags":[{"tag":"united_states"}],"address":"10151 University Ave","country":"USA","state":"IA","city":"Clive","postal":"50325","priority":1},{"lat":"41.6724107","lng":"-93.6976984","id":9721022,"name":"Fareway","tagsvalue":"united_states","tags":[{"tag":"united_states"}],"address":"Merle Hay Rd","country":"USA","state":"IA","city":"Johnston","postal":"50131","priority":1},{"lat":"41.6866518","lng":"-93.7788302","id":9721023,"name":"Fareway","tagsvalue":"united_states","tags":[{"tag":"united_states"}],"address":"351 SE Gateway Drive","country":"USA","state":"IA","city":"Grimes","postal":"50111","priority":1},{"lat":"41.0103554","lng":"-92.4401753","id":9721024,"name":"Fareway","tagsvalue":"united_states","tags":[{"tag":"united_states"}],"address":"1325 Alba Road","country":"USA","state":"IA","city":"Ottumwa","postal":"52501","priority":1},{"lat":"41.2929926","lng":"-92.6482433","id":9721025,"name":"Fareway","tagsvalue":"united_states","tags":[{"tag":"united_states"}],"address":"311 3rd Ave W","country":"USA","state":"IA","city":"Oskaloosa","postal":"52577","priority":1},{"lat":"41.4133064","lng":"-92.9417892","id":9721026,"name":"Fareway","tagsvalue":"united_states","tags":[{"tag":"united_states"}],"address":"2010 Washington Street","country":"USA","state":"IA","city":"Pella","postal":"50219","priority":1},{"lat":"41.3081786","lng":"-93.1104695","id":9721027,"name":"Fareway","tagsvalue":"united_states","tags":[{"tag":"united_states"}],"address":"1308 S Lincoln Street","country":"USA","state":"IA","city":"Knoxville","postal":"50138","priority":1},{"lat":"41.6434004","lng":"-93.472038","id":9721028,"name":"Fareway","tagsvalue":"united_states","tags":[{"tag":"united_states"}],"address":"620 8th St","country":"USA","state":"IA","city":"Altoona","postal":"50009","priority":1},{"lat":"41.6000174","lng":"-93.5056764","id":9721029,"name":"Fareway","tagsvalue":"united_states","tags":[{"tag":"united_states"}],"address":"5500 E University Ave","country":"USA","state":"IA","city":"Pleasant Hill","postal":"50327","priority":1},{"lat":"41.4988562","lng":"-93.5002664","id":9721030,"name":"Fareway","tagsvalue":"united_states","tags":[{"tag":"united_states"}],"address":"1115 Bluestem Drive","country":"USA","state":"IA","city":"Carlisle","postal":"50047","priority":1},{"lat":"41.3566079","lng":"-93.5793304","id":9721031,"name":"Fareway","tagsvalue":"united_states","tags":[{"tag":"united_states"}],"address":"1319 W 2nd Ave","country":"USA","state":"IA","city":"Indianola","postal":"50125","priority":1},{"lat":"41.6909027","lng":"-93.7778178","id":9721032,"name":"HyVee","tagsvalue":"united_states","tags":[{"tag":"united_states"}],"address":"351 NE Gateway Drive","country":"USA","state":"IA","city":"Grimes","postal":"50111","priority":1},{"lat":"42.4516983","lng":"-91.8708114","id":9721033,"name":"Hy Vee Fresh","tagsvalue":"united_states","tags":[{"tag":"united_states"}],"address":"1975 3 Elms Rd","country":"USA","state":"IA","city":"Independence","postal":"50644","priority":1},{"lat":"42.4833086","lng":"-91.4719591","id":9721034,"name":"Hy Vee Fresh","tagsvalue":"united_states","tags":[{"tag":"united_states"}],"address":"1080 W Main","country":"USA","state":"IA","city":"Manchester","postal":"52057","priority":1},{"lat":"42.481561","lng":"-91.4571387","id":9721035,"name":"Fareway","tagsvalue":"united_states","tags":[{"tag":"united_states"}],"address":"109 E Marion","country":"USA","state":"IA","city":"Manchester","postal":"52057","priority":1},{"lat":"42.2382191","lng":"-91.1829492","id":9721036,"name":"Hy Vee Fresh","tagsvalue":"united_states","tags":[{"tag":"united_states"}],"address":"100 N Main","country":"USA","state":"IA","city":"Monticello","postal":"52310","priority":1},{"lat":"42.0124402","lng":"-93.4369591","id":9721037,"name":"HyVee Fresh","tagsvalue":"united_states","tags":[{"tag":"united_states"}],"address":"1622 Fawcett Parkway","country":"USA","state":"IA","city":"Nevada","postal":"50201","priority":1},{"lat":"42.6593769","lng":"-91.9115993","id":9721038,"name":"Hy Vee Fresh","tagsvalue":"united_states","tags":[{"tag":"united_states"}],"address":"1345 S Fredrick","country":"USA","state":"IA","city":"Oelwein","postal":"50662","priority":1},{"lat":"41.9845001","lng":"-92.5822708","id":9721039,"name":"Hy-Vee Fresh","tagsvalue":"united_states","tags":[{"tag":"united_states"}],"address":"1008 S County Rd","country":"USA","state":"IA","city":"Toledo","postal":"52342","priority":1},{"lat":"42.1622123","lng":"-92.0388","id":9721040,"name":"Hy Vee Fresh","tagsvalue":"united_states","tags":[{"tag":"united_states"}],"address":"911 S K Avenue","country":"USA","state":"IA","city":"Vinton","postal":"52349","priority":1},{"lat":"42.5287528","lng":"-90.7722974","id":11673894,"name":"HyVee Dollar Fresh","address":"1300 Stone St","country":"USA","state":"NE","city":"Fall City","postal":"684111","priority":1},{"lat":"42.5287528","lng":"-90.7722974","id":11673895,"name":"HyVee","address":"625 SW US 40 Hwy","country":"USA","state":"MO","city":"Blue Springs","postal":"64014","priority":1},{"lat":"42.5287528","lng":"-90.7722974","id":11673896,"name":"Marsh's Sunfresh","address":"4001 Mill St","country":"USA","state":"MO","city":"Kansas City","postal":"64111","priority":1},{"lat":"42.5287528","lng":"-90.7722974","id":11673897,"name":"Silver Lake Foods","address":"1402 N Broadway Ave","country":"USA","state":"MN","city":"Rochester","postal":"55906","priority":1},{"lat":"42.5287528","lng":"-90.7722974","id":11696938,"name":"Walmart Supercenter","address":"4331 8th St S","country":"USA","state":"WI","city":"Wisconsin Rapids","postal":"54494","priority":1},{"lat":"42.5287528","lng":"-90.7722974","id":11696939,"name":"Walmart Supercenter","address":"1126 Highway 38 North","country":"USA","state":"IA","city":"Tipton","postal":"52772","priority":1},{"lat":"42.5287528","lng":"-90.7722974","id":11696940,"name":"Walmart Supercenter","address":"2485 Highway 92","country":"USA","state":"IA","city":"Washington","postal":"52353","priority":1},{"lat":"42.5287528","lng":"-90.7722974","id":11696941,"name":"Walmart Supercenter","address":"920 State Road 136","country":"USA","state":"WI","city":"Baraboo","postal":"53913","priority":1},{"lat":"42.5287528","lng":"-90.7722974","id":11696942,"name":"Walmart Supercenter","address":"1800 Progressive Pkwy","country":"USA","state":"WI","city":"Platteville","postal":"53818","priority":1},{"lat":"42.5287528","lng":"-90.7722974","id":11866519,"name":"Hy-Vee","address":"905 Lincoln Hwy, US-30","country":"USA","state":"IA","city":"Carroll","postal":"51401","priority":1},{"lat":"42.5287528","lng":"-90.7722974","id":11866520,"name":"Fareway","address":"709 Monterey Dr","country":"USA","state":"IA","city":"Carroll","postal":"51401","priority":1},{"lat":"42.5287528","lng":"-90.7722974","id":11866521,"name":"Hometown Foods","address":"200 State St","country":"USA","state":"IA","city":"Guthrie Center","postal":"50115","priority":1},{"lat":"42.5287528","lng":"-90.7722974","id":11866522,"name":"Hometown Foods","address":"601 E Main St","country":"USA","state":"IA","city":"Panora","postal":"50216","priority":1},{"lat":"42.5287528","lng":"-90.7722974","id":11866523,"name":"Hometown Foods","address":"607 S Division St","country":"USA","state":"IA","city":"Stuart","postal":"50250","priority":1},{"lat":"42.5287528","lng":"-90.7722974","id":12310660,"name":"Hy-Vee","address":"6150 Egan Dr","country":"USA","state":"MN","city":"Savage","postal":"55378","priority":1},{"lat":"42.5287528","lng":"-90.7722974","id":12310661,"name":"Hy-Vee","address":"16705 County Rd 24","country":"USA","state":"MN","city":"Plymouth","postal":"55447","priority":1},{"lat":"42.5287528","lng":"-90.7722974","id":12310662,"name":"Hy-Vee","address":"4200 WI-16","country":"USA","state":"WI","city":"La Crosse","postal":"54601","priority":1},{"lat":"42.5287528","lng":"-90.7722974","id":12310704,"name":"Hy-Vee","address":"1475 West Service Drive","country":"USA","state":"MN","city":"Winona","postal":"55987","priority":1}]